[
{"business_id":"AFDFOs2GaIyUArGyEUDQzQ","name":"Cafe Noodle & Chinese Barbeque","latitude":36.125908,"longitude":-115.197904,"full_address":"4355 Spring Mountain Rd, Chinatown, Las Vegas, NV 89102","stars":3.0},
{"business_id":"FV16IeXJp2W6pnghTz2FAw","name":"Pho Kim Long","latitude":36.1261943318021,"longitude":-115.193445287033,"full_address":"4029 Spring Mountain Rd, Chinatown, Las Vegas, NV 89102","stars":3.5},
{"business_id":"cvJDHk1ho0DxaF26etcr8Q","name":"Oiga, Mire, Vea Colombian Cuisine","latitude":36.142935,"longitude":-115.207747,"full_address":"2580 S Decatur Blvd, Westside, Las Vegas, NV 89102","stars":3.5},
{"business_id":"CoJivG0wxNIBXyOF7MNqSQ","name":"Pho Vietnam Restaurant","latitude":36.1253808,"longitude":-115.1959803,"full_address":"4215 Spring Mountain Rd, Chinatown, Las Vegas, NV 89102","stars":3.0},
{"business_id":"pCobXgTy6DIfBaT4pjlq0w","name":"Einstein Bros","latitude":36.1433258,"longitude":-115.206316,"full_address":"2570 S Decatur Blvd, Westside, Las Vegas, NV 89102","stars":3.5},
{"business_id":"JgpKLikZPbbXYPtILy3-wg","name":"Las Pupusas Restaurant","latitude":36.1318533,"longitude":-115.192068,"full_address":"3111 S Valley View Blvd, Westside, Las Vegas, NV 89102","stars":3.5},
{"business_id":"9-O8qKGQQCYXdBlj4iv7bw","name":"Romano's Macaroni Grill","latitude":36.144676,"longitude":-115.1750413,"full_address":"2400 W. Sahara Ave., Las Vegas, NV 89102","stars":3.0},
{"business_id":"PsOvURXqpy8iZX2J8y429A","name":"Landry's Seafood","latitude":36.1447324578391,"longitude":-115.175755620003,"full_address":"2610 W. Sahara Ave., Las Vegas, NV 89102","stars":3.0},
{"business_id":"Yq8LiVymGA7vBpGCQuDfRw","name":"Pho So 1","latitude":36.1249835,"longitude":-115.2064306,"full_address":"4745 Spring Mountain Rd, Chinatown, Las Vegas, NV 89102","stars":3.5},
{"business_id":"UKKz4HdQC0aH9j5lLi4u8Q","name":"Tofu Hut","latitude":36.1267612,"longitude":-115.192874,"full_address":"3920 Spring Mountain Rd, Chinatown, Las Vegas, NV 89102","stars":3.5},
{"business_id":"8CO_pV34XMZm_vOuNl42qg","name":"Walmart Supercenter","latitude":36.1564789,"longitude":-115.202328,"full_address":"4505 W Charleston Blvd, Westside, Las Vegas, NV 89102","stars":2.0},
{"business_id":"LM71VvmoAWDD5z8h7XoVig","name":"Samosa Factory","latitude":36.145118,"longitude":-115.20472,"full_address":"4604 W Sahara Ave, Ste 6, Westside, Las Vegas, NV 89102","stars":4.0},
{"business_id":"SvS58LlrEMHjSwJmpJNKGA","name":"Jimmy John's","latitude":36.1590906,"longitude":-115.1721079,"full_address":"2204 W Charleston Blvd, Downtown, Las Vegas, NV 89102","stars":3.5},
{"business_id":"RfR5yc4j9coIPBuxRsOW8Q","name":"Aloha Kitchen & Bar","latitude":36.1429701,"longitude":-115.20935,"full_address":"2605 S Decatur Blvd, Ste 109, Westside, Las Vegas, NV 89102","stars":3.5},
{"business_id":"-NXDZfqwfZ9OWba180HqFw","name":"Tacos Mexico","latitude":36.1447254,"longitude":-115.1916106,"full_address":"3820 W Sahara Ave, Westside, Las Vegas, NV 89102","stars":3.5},
{"business_id":"cZxez9tUb9hqV3KXq5YPAQ","name":"India Oven","latitude":36.1446996,"longitude":-115.1551759,"full_address":"2218 Paradise Rd, The Strip, Las Vegas, NV 89104","stars":3.5},
{"business_id":"ocZ8pz-8iSz5avdPKnoalA","name":"Nozomi Japanese Restaurant","latitude":36.1596729160581,"longitude":-115.172003750526,"full_address":"2202 W Charleston Blvd, Ste 11, Downtown, Las Vegas, NV 89102","stars":4.0},
{"business_id":"4OOi0RBsJmIzDfTVQ2mTGA","name":"Trader Joe's","latitude":36.1486584,"longitude":-115.2098129,"full_address":"2101 S Decatur Blvd, Westside, Las Vegas, NV 89102","stars":4.5},
{"business_id":"fUdr6QMsrBGOYpxS6Dcjdg","name":"Coffee Pub","latitude":36.145534,"longitude":-115.179144,"full_address":"2800 W Sahara Ave, Ste 2A, Westside, Las Vegas, NV 89102","stars":4.5},
{"business_id":"4UVhuOLaMm2-34SrW8y-ag","name":"Ichiza","latitude":36.125908,"longitude":-115.197904,"full_address":"4355 Spring Mountain Rd, Chinatown, Las Vegas, NV 89102","stars":4.0},
{"business_id":"1ldDbggHHgPlj3k0SpBTKQ","name":"Sam Woo BBQ Restaurant","latitude":36.1253808,"longitude":-115.1959803,"full_address":"4215 Spring Mountain Rd, Ste B101, Chinatown, Las Vegas, NV 89102","stars":2.0},
{"business_id":"v8TQwyxEj4or2Yng6y0S7A","name":"Korean Garden BBQ House","latitude":36.125908,"longitude":-115.197904,"full_address":"4355 Spring Mountain Rd, Chinatown, Las Vegas, NV 89102","stars":3.0},
{"business_id":"YZuHOgbKiP3dN4_ROOUyDQ","name":"Golden Steer Steakhouse","latitude":36.1440928,"longitude":-115.1611434,"full_address":"308 W Sahara Ave, The Strip, Las Vegas, NV 89102","stars":4.0},
{"business_id":"eoDEx1GGQA0CBDhy2ql_Kw","name":"Omelet House","latitude":36.1594391,"longitude":-115.1712276,"full_address":"2160 W Charleston Blvd, Downtown, Las Vegas, NV 89102","stars":4.5},
{"business_id":"Yin_BwfzTOdC8VY9ZD4K6w","name":"Capriotti's Sandwich Shop","latitude":36.1441292,"longitude":-115.1614606,"full_address":"322 W. Sahara, The Strip, Las Vegas, NV 89102","stars":4.0},
{"business_id":"QkVSaXjg5475VD3sZixCZQ","name":"Habib's Persian Cuisine","latitude":36.1431353,"longitude":-115.2085504,"full_address":"2575 S Decatur Blvd, Westside, Las Vegas, NV 89102","stars":3.5},
{"business_id":"pj0vl4DIlDCChe80Df40Yw","name":"Food Express Chinese Restaurant","latitude":36.1497949,"longitude":-115.2075998,"full_address":"2003 S Decatur Blvd, Ste B, Westside, Las Vegas, NV 89102","stars":4.0},
{"business_id":"xxOQ7h6s3InV8o8DOVHlMA","name":"Island Style","latitude":36.1440254,"longitude":-115.1938769,"full_address":"3909 W Sahara Ave, Ste 1, Westside, Las Vegas, NV 89102","stars":4.5},
{"business_id":"9JZzT2BMalNseFn11x5EIQ","name":"Cafe Verdi","latitude":36.1308989,"longitude":-115.1907847,"full_address":"3111 S Valley View Blvd, Bldg M, Ste 105, Westside, Las Vegas, NV 89102","stars":3.0},
{"business_id":"pPJyi5kggzTibTxSPuRd0g","name":"Osaka Japanese Bistro","latitude":36.1438869,"longitude":-115.1968986,"full_address":"4205 W Sahara Ave, Westside, Las Vegas, NV 89102","stars":4.0},
{"business_id":"SfrHdU4NCkYWvERnWaOUqQ","name":"Blueberry Hill Family Restaurant","latitude":36.1564277,"longitude":-115.2076923,"full_address":"1280 S Decatur Blvd, Westside, Las Vegas, NV 89102","stars":3.5},
{"business_id":"Xo7K1LugLnT4pGc5TtwHRA","name":"TGI Fridays","latitude":36.1448864,"longitude":-115.20233,"full_address":"4570 W Sahara Ave, Westside, Las Vegas, NV 89102","stars":2.5},
{"business_id":"Tigw_9LXyHL63Eu3XAXwRw","name":"Emperor's Garden","latitude":36.1253808,"longitude":-115.1959803,"full_address":"4215 Spring Mountain Rd, Ste B203, Chinatown, Las Vegas, NV 89102","stars":2.0},
{"business_id":"zFcd_gelAUEwAvJOgiZpvg","name":"Joyful House Chinese Cuisine","latitude":36.1259553166171,"longitude":-115.203431297022,"full_address":"4601 Spring Mountain Rd, Chinatown, Las Vegas, NV 89102","stars":3.5},
{"business_id":"bqYrEwL5xjqv0u8XAij--Q","name":"Tea Station","latitude":36.125964,"longitude":-115.1976,"full_address":"4355 Spring Mountain Rd, Ste 106, Chinatown, Las Vegas, NV 89102","stars":3.0},
{"business_id":"uy9IblmbJogF1TEUc6JHzw","name":"The Buffet","latitude":36.1476947,"longitude":-115.1563056,"full_address":"Stratosphere, 2000 S Las Vegas Blvd, The Strip, Las Vegas, NV 89104","stars":2.5},
{"business_id":"83C1eqPfmQHTy_8MC4Ug6w","name":"Roxy's Diner","latitude":36.1477095178536,"longitude":-115.155205875635,"full_address":"Stratosphere Casino, Hotel & Tower, 2000 Las Vegas Blvd S, The Strip, Las Vegas, NV 89104","stars":3.0},
{"business_id":"q0aoi6vsi9TBU5-k3FfOOw","name":"Boston Pizza","latitude":36.1530812,"longitude":-115.1509664,"full_address":"1507 Las Vegas Blvd S, Downtown, Las Vegas, NV 89104","stars":3.5},
{"business_id":"cJTgJTzEWg5ErWnvaHsUBA","name":"Florida Cafe Cuban Bar & Grill","latitude":36.155323,"longitude":-115.149618,"full_address":"Shalimar Hotel/ Parquin & Restaurant, 1401 Las Vegas Blvd S, Downtown, Las Vegas, NV 89104","stars":3.5},
{"business_id":"DqzyOJTJXu0Iwi8og5DJDA","name":"Ocha Thai Cuisine","latitude":36.1566896,"longitude":-115.148347,"full_address":"1201 Las Vegas Blvd S, Downtown, Las Vegas, NV 89104","stars":4.0},
{"business_id":"KHsTmXPujzm6-VrnyhT0dw","name":"Rincon Criollo","latitude":36.1572513,"longitude":-115.1481734,"full_address":"1145 Las Vegas Blvd S, Downtown, Las Vegas, NV 89104","stars":4.0},
{"business_id":"c8eY_s8VO4qjAhOXo3Ua2g","name":"Italian American Club Restaurant","latitude":36.1454551496134,"longitude":-115.116317666426,"full_address":"2333 E Sahara Ave, Downtown, Las Vegas, NV 89104","stars":4.5},
{"business_id":"0aV8mzabKSFylfi0NQGqlQ","name":"Los Tacos","latitude":36.1584563,"longitude":-115.1275613,"full_address":"1710 E Charleston Blvd, Downtown, Las Vegas, NV 89104","stars":4.0},
{"business_id":"KwLfgeylp9d8zY3KacREiw","name":"Komol Restaurant","latitude":36.1424875211701,"longitude":-115.142594814388,"full_address":"953 E Sahara Ave, Ste E-10 & E -12, Eastside, Las Vegas, NV 89104","stars":4.0},
{"business_id":"QXUI3ZEnPw0j55qjwjiOnA","name":"Tokyo Japanese Restaurant","latitude":36.143672,"longitude":-115.1409598,"full_address":"953 E Sahara Ave, Ste E14, Eastside, Las Vegas, NV 89104","stars":4.0},
{"business_id":"SdVDnb279GGs2qAUSVz05A","name":"Pinoy Pinay Filipino Restaurant","latitude":36.145433,"longitude":-115.1360328,"full_address":"1217 E Sahara Ave, Downtown, Las Vegas, NV 89104","stars":3.5},
{"business_id":"KdJJFvYI9w5xF0EVYPbXMA","name":"Anthony & Marios Broadway Pizzeria","latitude":36.1617046,"longitude":-115.1734184,"full_address":"840 S Rancho Dr, Downtown, Las Vegas, NV 89106","stars":4.0},
{"business_id":"b6qYCOz0vzJW4U81XLY8IA","name":"Mario's Westside Market","latitude":36.1949407,"longitude":-115.1603549,"full_address":"1960 N Martin L King Blvd, Las Vegas, NV 89106","stars":4.0},
{"business_id":"q28CkzJaV5yKPXysY8xewA","name":"Buffet @ Asia","latitude":36.0106646,"longitude":-115.1186365,"full_address":"9901 Eastern Ave, Ste 110, Southeast, Las Vegas, NV 89183","stars":2.5},
{"business_id":"QXTN5WwZxvf-Z940RmDUdQ","name":"Thai Grill","latitude":36.1941506,"longitude":-115.2061228,"full_address":"1901 N Decatur Blvd, Las Vegas, NV 89108","stars":3.5},
{"business_id":"X0cEpOYi0Gf-S_-xb8OZVQ","name":"Pin Kaow Thai Restaurant","latitude":36.195393,"longitude":-115.241323,"full_address":"1974 N Rainbow Blvd, Las Vegas, NV 89108","stars":4.0},
{"business_id":"No0SNrxkX6ADEde-9QwtMw","name":"Chili's","latitude":36.198756,"longitude":-115.2425637,"full_address":"2011 N Rainbow Blvd, Las Vegas, NV 89108","stars":3.0},
{"business_id":"rAZglrxLotA9xaa7KPXV5g","name":"Pepe's Tacos","latitude":36.18557,"longitude":-115.207581,"full_address":"1401 N Decatur Blvd, Las Vegas, NV 89108","stars":3.5},
{"business_id":"Xro3j2fouA42Stc540ZDvw","name":"Applebee's","latitude":36.1973938,"longitude":-115.2413985,"full_address":"2070 N Rainbow Blvd, Las Vegas, NV 89108","stars":2.5},
{"business_id":"Fw95xLMdwO9LoOtbBThr9w","name":"Romano's Macaroni Grill","latitude":36.198134660417,"longitude":-115.24243291738,"full_address":"2001 N Rainbow Blvd, Las Vegas, NV 89108","stars":3.0},
{"business_id":"0lQDOFqEVB1LQhkS2kN1RA","name":"Griddlecakes","latitude":36.2171468,"longitude":-115.2253774,"full_address":"3200 N Jones Blvd, Northwest, Las Vegas, NV 89108","stars":3.0},
{"business_id":"LcVBQ-7aF87OR-vlKX5m-Q","name":"Olive Garden Italian Restaurant","latitude":36.1605371,"longitude":-115.0616609,"full_address":"80 N. Nellis Blvd., Sunrise, Las Vegas, NV 89110","stars":3.5},
{"business_id":"7P9k2NQPeIyF1TkH5cKQVg","name":"Lao Thai Kitchen","latitude":36.1783291,"longitude":-115.0616024,"full_address":"1000 N Nellis Blvd, Ste I, Sunrise, Las Vegas, NV 89110","stars":4.0},
{"business_id":"hhC02OKU6BWRvrNJQiEIUw","name":"Munch-A-Sub","latitude":36.0932416,"longitude":-115.2033739,"full_address":"5320 Cameron St, Ste 1, Las Vegas, NV 89118","stars":4.0},
{"business_id":"7A6RHKyblsmvHf2F377WMQ","name":"Roberto's Taco Shop","latitude":36.092861,"longitude":-115.2085216,"full_address":"5335 S Decatur Blvd, Las Vegas, NV 89118","stars":3.5},
{"business_id":"qp6lyLN1TuRu3vkwbdRjlA","name":"Memphis Championship Barbecue","latitude":36.2397652,"longitude":-115.0566968,"full_address":"4379 Las Vegas Blvd, Las Vegas, NV 89115","stars":3.0},
{"business_id":"qdAxH_RrFaYqLD-g30N2fA","name":"Original Pancake House","latitude":36.1135009104686,"longitude":-115.296490917258,"full_address":"4170 S Ft Apache Rd, Spring Valley, Las Vegas, NV 89147","stars":3.5},
{"business_id":"ky6c1bhp1695tWLfnyKOyQ","name":"Kabob Grill","latitude":36.0146273,"longitude":-115.117155,"full_address":"9550 S Eastern Ave, Las Vegas, NV 89123","stars":4.0},
{"business_id":"bXfMEP__URx7f-s1GT8Teg","name":"Super Mex Restaurant & Cantina","latitude":36.0722646,"longitude":-115.0992936,"full_address":"3460 E Sunset Rd, Ste D, Southeast, Las Vegas, NV 89120","stars":3.5},
{"business_id":"OWQJrnXbWkLTI1-qRkkUpQ","name":"Golden Flower Chinese Cuisine","latitude":36.0856861,"longitude":-115.1037793,"full_address":"3315 E Russell Rd, Southeast, Las Vegas, NV 89120","stars":4.0},
{"business_id":"ZZtEx_UutNxz9B5knTL4tQ","name":"Mr. Chop Chop","latitude":36.0972977,"longitude":-115.1013785,"full_address":"5075 S Pecos Rd, Southeast, Las Vegas, NV 89120","stars":3.5},
{"business_id":"BSlmhfVEsy16C_ZUpcyB8w","name":"Bob's East Side Deli","latitude":36.079498,"longitude":-115.110967,"full_address":"2900 E Patrick Ln, Southeast, Las Vegas, NV 89120","stars":4.0},
{"business_id":"w9KBaltlg7B_tca-nNfj_A","name":"Amlee Chinese Cuisine","latitude":36.0707165,"longitude":-115.0911257,"full_address":"3827 E Sunset Rd, Southeast, Las Vegas, NV 89120","stars":3.5},
{"business_id":"xSAG_asR5if0p1Dfk0ISsg","name":"Billy Bob's Steakhouse","latitude":36.112237,"longitude":-115.0615555,"full_address":"5111 Boulder Hwy, Las Vegas, NV 89122","stars":3.0},
{"business_id":"thlVek1kUo3fyxUEap65zw","name":"Willy & Jose's","latitude":36.1128082,"longitude":-115.0622886,"full_address":"5111 Boulder Hwy, Las Vegas, NV 89122","stars":3.0},
{"business_id":"1o2Lx_YMC2xpuBG2q00LAQ","name":"Firelight Buffet","latitude":36.1083983475811,"longitude":-115.04684770957,"full_address":"Sam's Town, 5111 Boulder Hwy, Las Vegas, NV 89122","stars":3.0},
{"business_id":"3MIy-ca6QVtKWXNzerQxWw","name":"Grape Street","latitude":36.19518,"longitude":-115.2573615,"full_address":"7501 W Lake Mead Blvd, Ste 120, Las Vegas, NV 89128","stars":3.5},
{"business_id":"s3u1ET2VN9NkY0qsn9gSwQ","name":"Rubio's","latitude":36.1964872432366,"longitude":-115.250543236949,"full_address":"7290 W Lake Mead Blvd, Las Vegas, NV 89128","stars":4.0},
{"business_id":"jsO9c15l1KJ5ncBid3pnmA","name":"Roadrunner Saloon","latitude":36.1822443826586,"longitude":-115.260271061604,"full_address":"921 N Buffalo Dr, Summerlin, Las Vegas, NV 89128","stars":3.0},
{"business_id":"QgFlkWtQcmVS_hvF0w-nQQ","name":"Trader Joe's","latitude":36.1806074073656,"longitude":-115.25774430325,"full_address":"7575 W Washington Ave, Las Vegas, NV 89128","stars":4.5},
{"business_id":"8YN0_08op4_chO3GTOUJLQ","name":"Jimmy John's","latitude":36.1967709,"longitude":-115.2491981,"full_address":"7210 W Lake Mead Blvd, Las Vegas, NV 89128","stars":3.5},
{"business_id":"O6MyV5uqwZabD5dKbT294Q","name":"Northside Nathan's Pizza","latitude":36.1956158,"longitude":-115.2582758,"full_address":"7531 W Lake Mead Blvd, Ste 300, Las Vegas, NV 89128","stars":3.5},
{"business_id":"VYCbveCk-j4UR_aSTuASJA","name":"Village Pub & Casino","latitude":36.206744,"longitude":-115.2683721,"full_address":"2610 Regatta Dr, Summerlin, Las Vegas, NV 89128","stars":3.5},
{"business_id":"1dk07edqr5_7goS6AnXAjw","name":"Red Rock Pizza","latitude":36.1978779200382,"longitude":-115.280490277076,"full_address":"8455 W Lake Mead Blvd, Summerlin, Las Vegas, NV 89128","stars":4.0},
{"business_id":"tGx7BSyqWDeppMvt2aQw_A","name":"Steiner's Nevada Style Pub","latitude":36.1906225,"longitude":-115.2588414,"full_address":"1750 N Buffalo Dr, Ste 115, Las Vegas, NV 89128","stars":3.5},
{"business_id":"ZBVXf0uC7k8iKDYCIMa2tQ","name":"Omelet House Summerlin","latitude":36.2004667,"longitude":-115.2818777,"full_address":"2227 N Rampart Blvd, Summerlin, Las Vegas, NV 89128","stars":4.0},
{"business_id":"bpGFetX8muk0GxAT3Oea3Q","name":"Yummy Grill & Sushi","latitude":36.1947642876508,"longitude":-115.252484219574,"full_address":"7331 W Lake Mead Blvd, Ste 105, Las Vegas, NV 89128","stars":4.5},
{"business_id":"lqx--hrRwe0oK6WnFYNXlg","name":"Marché Bacchus","latitude":36.2075183,"longitude":-115.2681365,"full_address":"2620 Regatta Dr, Ste 106, Summerlin, Las Vegas, NV 89128","stars":4.0},
{"business_id":"lAher1puKzN9r3LALx-JqQ","name":"John Mull's Meats & Road Kill Grill","latitude":36.22723,"longitude":-115.2114516,"full_address":"3730 Thom Blvd, Northwest, Las Vegas, NV 89130","stars":4.5},
{"business_id":"3Nt3CA4IDxt0SeQO24gb-Q","name":"Bob Taylor's Ranch House","latitude":36.274725548188,"longitude":-115.245787035822,"full_address":"6250 Rio Vista St, Centennial, Las Vegas, NV 89130","stars":3.5},
{"business_id":"aidjBZ-cLeRmrsAPM6ZkcA","name":"Big Dog's Draft House","latitude":36.242419344738,"longitude":-115.23581079506,"full_address":"4543 N Rancho Dr, Northwest, Las Vegas, NV 89130","stars":3.5},
{"business_id":"LTHq7A5vVAwtqqu5i2ZLUQ","name":"El Burrito Mexican Restaurant","latitude":36.2104502,"longitude":-115.2794629,"full_address":"8508 Del Webb Blvd, Summerlin, Las Vegas, NV 89134","stars":3.5},
{"business_id":"ivi5jHjmf2uV8faGJ9Rfig","name":"Sultan's Grill","latitude":36.1931097770004,"longitude":-115.304208724779,"full_address":"1910 Village Center Cir, Ste 7, Summerlin, Las Vegas, NV 89134","stars":3.5},
{"business_id":"wv-U4BHulKC0OxjkP5zPqw","name":"Fazoli's","latitude":36.183767,"longitude":-115.308703,"full_address":"1260 N Town Center Dr, Summerlin, Las Vegas, NV 89134","stars":3.5},
{"business_id":"1MJ5xmHmeCiau07X2bQyUQ","name":"KJ Kitchen","latitude":36.1258612,"longitude":-115.2230846,"full_address":"5960 Spring Mountain Rd, Chinatown, Las Vegas, NV 89146","stars":3.5},
{"business_id":"T4AyBSffvi3prLrw0H2enA","name":"Prommares Thai Food","latitude":36.1450530608245,"longitude":-115.232838104429,"full_address":"6362 W Sahara Ave, Westside, Las Vegas, NV 89146","stars":4.0},
{"business_id":"_ZyJLAlkmqefU0WXQ2o6jQ","name":"Sammy's Woodfired Pizza and Grill","latitude":36.144512,"longitude":-115.2366621,"full_address":"6500 W Sahara Ave, Westside, Las Vegas, NV 89146","stars":3.5},
{"business_id":"3DHwRjWomOtnxM1v6-bPEQ","name":"Sushi On Rainbow","latitude":36.1268192,"longitude":-115.2421504,"full_address":"6870 Spring Mountain Rd, Ste 6, Chinatown, Las Vegas, NV 89146","stars":3.5},
{"business_id":"KJnVuzpveyDrHARVNZaYVg","name":"Hooters Casino Hotel","latitude":36.0993459,"longitude":-115.167874,"full_address":"115 E Tropicana Ave, Southeast, Las Vegas, NV 89109","stars":2.5},
{"business_id":"33aOj9haiHsULCUmFOZ7uQ","name":"Pho Saigon 8","latitude":36.1259475,"longitude":-115.2188254,"full_address":"5650 Spring Mountain Rd, Chinatown, Las Vegas, NV 89146","stars":3.5},
{"business_id":"rExmZxKkcO0VfOVMo-w66g","name":"Fiesta Filipina Cuisine","latitude":36.1286028,"longitude":-115.2242459,"full_address":"3310 S Jones Blvd, Ste A, Westside, Las Vegas, NV 89146","stars":3.5},
{"business_id":"O1NBNVfXWmk3CvszAhOEoQ","name":"Rincon De Buenos Aires","latitude":36.1267101,"longitude":-115.213915,"full_address":"5300 Spring Mountain Rd, Chinatown, Las Vegas, NV 89146","stars":4.5},
{"business_id":"kr9gePdA-ds4ltXLlH3M_A","name":"Original Pancake House","latitude":36.1588115,"longitude":-115.2072854,"full_address":"4833 W Charleston Blvd, Westside, Las Vegas, NV 89146","stars":4.0},
{"business_id":"ME0olHUKPsJ9spaLudZlYA","name":"Buffet Asia","latitude":36.1447569,"longitude":-115.242249,"full_address":"2380 S Rainbow Blvd, Westside, Las Vegas, NV 89146","stars":3.0},
{"business_id":"S4nbHSW29N0rcXkIlA-wbQ","name":"Sonic Drive-In","latitude":36.1435161,"longitude":-115.2330284,"full_address":"6455 W Sahara Ave, Westside, Las Vegas, NV 89146","stars":3.0},
{"business_id":"G2AqHSVc8t6I21qiHeq7jA","name":"The Tap House","latitude":36.1588017,"longitude":-115.2182327,"full_address":"5589 W Charleston Blvd, Westside, Las Vegas, NV 89146","stars":3.5},
{"business_id":"7Mgly28cnzY-2py2ClEjiA","name":"New York Pizza & Pasta","latitude":36.1452004151526,"longitude":-115.224454178043,"full_address":"2400 S Jones Blvd, Westside, Las Vegas, NV 89146","stars":4.0},
{"business_id":"tJhh6NDsNIwWMpxlP-0F7g","name":"Blue Ox Tavern","latitude":36.142636,"longitude":-115.2217,"full_address":"5825 W Sahara Ave, Ste A, Westside, Las Vegas, NV 89146","stars":4.5},
{"business_id":"8871Si56d_dc0igE3TRpgA","name":"Roma Deli & Restaurant","latitude":36.1253063,"longitude":-115.2198749,"full_address":"5755 Spring Mountain Rd, Chinatown, Las Vegas, NV 89146","stars":4.5},
{"business_id":"Xnwjo2TUu4AyGdmsxeG7OQ","name":"Cathay House Restaurant","latitude":36.1267101,"longitude":-115.213915,"full_address":"5300 Spring Mountain Rd, Ste 107, Chinatown, Las Vegas, NV 89146","stars":3.0},
{"business_id":"uEZWVN-ehk_XyDh0Dujh0w","name":"Schlotzsky's","latitude":36.1586671,"longitude":-115.2091863,"full_address":"5119 W Charleston Blvd, Westside, Las Vegas, NV 89146","stars":4.0},
{"business_id":"uybZVwl43IwaKAeRqkb3Zg","name":"Tacos El Compita","latitude":36.1599719620647,"longitude":-115.22466864472,"full_address":"6118 W Charleston Blvd, Westside, Las Vegas, NV 89146","stars":4.5},
{"business_id":"3YLo7L0_1_Hy9SIuDrDceg","name":"Gyro Time Restaurant","latitude":36.1588203,"longitude":-115.2125772,"full_address":"5239 W Charleston Blvd, Westside, Las Vegas, NV 89146","stars":3.5},
{"business_id":"4sTUCAAzenGzgG2w7ry1zQ","name":"Farm Basket","latitude":36.1594218,"longitude":-115.2250915,"full_address":"6148 W Charleston Blvd, Westside, Las Vegas, NV 89146","stars":4.0},
{"business_id":"ubwHoadNnVfMB9dFV2uyTQ","name":"Nevada Chicken Cafe","latitude":36.1437858,"longitude":-115.2266305,"full_address":"6155 W Sahara Ave, Ste 1&3, Westside, Las Vegas, NV 89146","stars":3.5},
{"business_id":"q1CYZyiBpEhqWRPkqI0W4A","name":"Walmart Supercenter","latitude":36.0937736,"longitude":-115.2940246,"full_address":"5200 S Fort Apache Rd, Spring Valley, Las Vegas, NV 89148","stars":2.5},
{"business_id":"ZygV0bo1lfQ1ZRnVc0Uwlw","name":"Panera Bread","latitude":36.0957996496601,"longitude":-115.296600759139,"full_address":"5130 South Fort Apache Road, Spring Valley, Las Vegas, NV 89148","stars":3.5},
{"business_id":"8kmIIK2YE6Rcg3HaDVha3w","name":"The Range Steakhouse","latitude":36.1183787,"longitude":-115.1726202,"full_address":"Harrahs Las Vegas, 3475 S Las Vegas Blvd, The Strip, Las Vegas, NV 89152","stars":4.0},
{"business_id":"JBtHmLIXJprdHV2xMa0KKQ","name":"Mama Maria's Mexican Restaurant","latitude":36.1955918,"longitude":-115.04046,"full_address":"6055 E Lake Mead Blvd, Sunrise, Las Vegas, NV 89156","stars":4.5},
{"business_id":"htsJHl2YcqwPfIbQkXrXrg","name":"Timbers - Horizon Ridge","latitude":36.023315,"longitude":-115.0480351,"full_address":"1450 W Horizon Ridge Pkwy, Las Vegas, NV 89156","stars":3.5},
{"business_id":"smoGuW2a2Nume83mB3JJSw","name":"Applebee's","latitude":36.057545,"longitude":-115.1450717,"full_address":"820 E Warm Springs Rd, Southeast, Las Vegas, NV 89119","stars":2.5},
{"business_id":"_cNzmoWpJfIHlsmlMGJuLw","name":"Einstein Bros Bagels","latitude":36.1918793785443,"longitude":-115.305118575535,"full_address":"1990 Village Center Cir, Ste 2, Summerlin, Las Vegas, NV 89134","stars":2.5},
{"business_id":"vvur3WRgdgnhYoMUXMZZCA","name":"Aloha Specialties","latitude":36.1729494,"longitude":-115.1447422,"full_address":"12 E Ogden Ave, Downtown, Las Vegas, NV 89101","stars":4.0},
{"business_id":"CM4LY-sjD0Q9HivGTFHdoA","name":"Chicago Joe's Restaurant","latitude":36.1609974,"longitude":-115.1478836,"full_address":"820 S 4th St, Downtown, Las Vegas, NV 89101","stars":3.5},
{"business_id":"XC9tnUvXARu6XjRxO6u8DQ","name":"Doña Maria Tamales Restaurant","latitude":36.1594218,"longitude":-115.147258,"full_address":"910 Las Vegas Blvd S, Downtown, Las Vegas, NV 89101","stars":3.5},
{"business_id":"wqOSESjr7ioLSAUOzzhqoQ","name":"El Sombrero Cafe","latitude":36.1627231,"longitude":-115.1512318,"full_address":"807 S Main St, Downtown, Las Vegas, NV 89101","stars":3.5},
{"business_id":"s8NoNszuW8_CSFQjLApRuQ","name":"Uncle Joe's Pizza","latitude":36.1691679,"longitude":-115.1405453,"full_address":"505 Fremont St, Downtown, Las Vegas, NV 89101","stars":4.0},
{"business_id":"foDMwBRGJvKw791v0AT7OA","name":"Hugo's Cellar","latitude":36.1695017334781,"longitude":-115.142535036121,"full_address":"Four Queens Hotel and Casino, 202 Fremont St, Downtown, Las Vegas, NV 89101","stars":4.5},
{"business_id":"CfdCsVkzzM3uJKGRzA0ufA","name":"Tony Roma's","latitude":36.1710618186308,"longitude":-115.143131911755,"full_address":"200 E Fremont St, Downtown, Las Vegas, NV 89101","stars":2.0},
{"business_id":"kE7hkm4gn8dHvGFwqy6foQ","name":"Second Street Grill","latitude":36.1707639,"longitude":-115.1435262,"full_address":"200 Fremont St, Downtown, Las Vegas, NV 89101","stars":4.0},
{"business_id":"QLuWutuU6jHOGZgUWBWQQg","name":"Carson Street Cafe","latitude":36.1686453779591,"longitude":-115.123672485352,"full_address":"Golden Nugget Las Vegas, 129 Fremont St, Las Vegas, NV 89101","stars":3.0},
{"business_id":"cMBZ46gNJPYY7zkxDb1piw","name":"Garden Court Buffet","latitude":36.1740973156079,"longitude":-115.145109871841,"full_address":"Main Street Station, 200 N Main St, Las Vegas, NV 89101","stars":3.5},
{"business_id":"qjTsleuff7mJHp2qMVGMwA","name":"Piccadilly Pizza Fremont","latitude":36.170125,"longitude":-115.141972,"full_address":"322 Fremont St, Downtown, Las Vegas, NV 89101","stars":2.5},
{"business_id":"e9TeHrdVJe-NaAaEXWapfQ","name":"Los Molcajetes","latitude":36.1879385,"longitude":-115.1166004,"full_address":"1553 N Eastern Ave, Las Vegas, NV 89101","stars":4.5},
{"business_id":"7VDrYNPhDKFURZbK4MRi8w","name":"Red Shrimp Company","latitude":36.1153521,"longitude":-115.2245118,"full_address":"4060 S Jones Blvd, Las Vegas, NV 89103","stars":3.0},
{"business_id":"93zReBgrXHZxsONq6JtEzQ","name":"Tasty Island Jamaican Restaurant","latitude":36.1149232457147,"longitude":-115.24135471847,"full_address":"6820 W Flamingo Rd, Las Vegas, NV 89103","stars":3.0},
{"business_id":"5h3pG3cq0eNNErp27V6zRg","name":"Thai BBQ","latitude":36.1129254,"longitude":-115.2243713,"full_address":"4180 S Jones Blvd, Las Vegas, NV 89103","stars":3.5},
{"business_id":"RbMQbzxXAbrcABVxjyr87w","name":"Capriotti's Sandwich Shop","latitude":36.114935,"longitude":-115.209737,"full_address":"4983 W Flamingo Rd, Ste D, Las Vegas, NV 89103","stars":4.0},
{"business_id":"2Dbg35sPSGmZGcbBVNa9dA","name":"Kung Fu Thai & Chinese Restaurant","latitude":36.1261484,"longitude":-115.1904588,"full_address":"3505 S Valley View Blvd, Chinatown, Las Vegas, NV 89103","stars":3.5},
{"business_id":"E-vpjU-T7ssWsswziJkJFA","name":"El Taco Feliz","latitude":36.115074,"longitude":-115.2056,"full_address":"4755 W Flamingo Rd, Las Vegas, NV 89103","stars":3.5},
{"business_id":"8Nsh8u0zHYegI6XT1L39Lg","name":"McMullan's Irish Pub","latitude":36.1016356,"longitude":-115.2044461,"full_address":"4650 W Tropicana Ave, Las Vegas, NV 89103","stars":4.0},
{"business_id":"3UdZcZn_DGPtjk5GSZtLNg","name":"Pasta Mia West","latitude":36.114807127073,"longitude":-115.201443330999,"full_address":"4455 W Flamingo Rd, Las Vegas, NV 89103","stars":4.0},
{"business_id":"y61Tq9hErVKoT6w-qyRpwQ","name":"Golden Dragon Chinese Cuisine","latitude":36.1012308102741,"longitude":-115.225915018163,"full_address":"6120 W Tropicana Ave, Ste A1, Las Vegas, NV 89103","stars":3.0},
{"business_id":"sXEOGcIGsO2_zZXYxVadTw","name":"Bonito Michoacan","latitude":36.1221978,"longitude":-115.2089027,"full_address":"3715 S Decatur Blvd, Chinatown, Las Vegas, NV 89103","stars":4.0},
{"business_id":"xPmY3FNTym7gHdWcW7VxrA","name":"Payless Pizza #2 and Ribs","latitude":36.0994997882314,"longitude":-115.220402002335,"full_address":"5785 W Tropicana Ave, Ste 3, Las Vegas, NV 89103","stars":4.5},
{"business_id":"qy7DyCFqyTPDctp_H1n-Pw","name":"Jackson's Bar & Grill","latitude":36.1152796,"longitude":-115.2235321,"full_address":"6020 W Flamingo Rd, Las Vegas, NV 89103","stars":4.0},
{"business_id":"5tYLVPc2PKnj6E62sY6QMg","name":"Chang's Hong Kong Cuisine","latitude":36.105081,"longitude":-115.20764,"full_address":"4670 S Decatur Blvd, Las Vegas, NV 89103","stars":3.5},
{"business_id":"n7sSfNtNYYcDZVly7_CTWw","name":"Thai Spice","latitude":36.114962,"longitude":-115.200795,"full_address":"4433 W Flamingo Rd, Las Vegas, NV 89103","stars":3.5},
{"business_id":"KFyB0ueHjAfN4oadjKsTEw","name":"Metro Pizza","latitude":36.1173479,"longitude":-115.2093939,"full_address":"4001 S Decatur Blvd, Ste 39, Las Vegas, NV 89103","stars":4.0},
{"business_id":"4GQhbPvGU5r23YdVm8EmkQ","name":"Ferraro's Italian Restaurant & Wine Bar","latitude":36.109129,"longitude":-115.151258,"full_address":"4480 Paradise Rd, Eastside, Las Vegas, NV 89169","stars":4.0},
{"business_id":"i3ogCoQD4MY_sR73GCk-BA","name":"Nora's Italian Cuisine","latitude":36.1152966398155,"longitude":-115.223423651324,"full_address":"6020 W Flamingo Rd, Ste 10, Las Vegas, NV 89103","stars":4.0},
{"business_id":"Z_etWN1CFQY1aslGbU6p6Q","name":"Walmart Supercenter","latitude":36.1234190120984,"longitude":-115.24618460463,"full_address":"3615 S Rainbow Blvd, Chinatown, Las Vegas, NV 89103","stars":2.0},
{"business_id":"fkVBloMEFJG2HTgeCxeNDg","name":"Black Bear Diner","latitude":36.1002814147651,"longitude":-115.227458260059,"full_address":"6180 W. Tropicana Avenue, Las Vegas, NV 89103","stars":4.0},
{"business_id":"TCX33pPlZzWKkqLG07wvUg","name":"Viva Mercado's","latitude":36.1248420622035,"longitude":-115.243492126465,"full_address":"3553 S Rainbow Blvd, Chinatown, Las Vegas, NV 89103","stars":4.0},
{"business_id":"6S8fuDZ2XDcsPibF3BNTsQ","name":"Krung Thai Restaurant","latitude":36.1145279,"longitude":-115.2076743,"full_address":"4130 S Decatur Blvd, Las Vegas, NV 89103","stars":4.0},
{"business_id":"W4nOms707NPHX62Sl_HKoA","name":"Little Italy Pizza","latitude":36.1223454,"longitude":-115.1905952,"full_address":"3711 S Valley View Blvd, Ste H, Chinatown, Las Vegas, NV 89103","stars":3.5},
{"business_id":"4ZZab5hinFzHtj3sE8vQWg","name":"Sushi Factory","latitude":36.1013213,"longitude":-115.225783,"full_address":"6120 W Tropicana Ave, Ste A11, Las Vegas, NV 89103","stars":3.0},
{"business_id":"k-hE27MVMEBWdMsto1DeUA","name":"Koji Sushi Bar and China Bistro","latitude":36.1022995155056,"longitude":-115.2024506405,"full_address":"4500 W Tropicana Ave, Las Vegas, NV 89103","stars":3.5},
{"business_id":"IzcWiXp9PU08yi7r4ftp5w","name":"Salo-Salo Grill","latitude":36.122985,"longitude":-115.22429,"full_address":"3650 S Jones Blvd, Chinatown, Las Vegas, NV 89103","stars":3.5},
{"business_id":"V3ruBXjLGWniPNPQOzRhiw","name":"Makino LV","latitude":36.118631992061,"longitude":-115.20845875971,"full_address":"3965 S Decatur Blvd, Ste 5, Las Vegas, NV 89103","stars":3.5},
{"business_id":"EZkoSglbAjy1_WGlUQtvsg","name":"Fatburger","latitude":36.1140874,"longitude":-115.2404642,"full_address":"6775  W Flamingo Road, Las Vegas, NV 89103","stars":2.5},
{"business_id":"Q9KILetOPQLzIf7Ki3D8-g","name":"Little Buddha Restaurant & Sushi Bar","latitude":36.1109751586925,"longitude":-115.207099914551,"full_address":"The Palms Casino Resort, 4321 W Flamingo  Rd, Las Vegas, NV 89103","stars":3.5},
{"business_id":"DoEMzev54WS8_lVLJ3NoqQ","name":"Alizé","latitude":36.1146846850202,"longitude":-115.194960397099,"full_address":"Palms Casino Resort, 4321 W Flamingo Rd, Las Vegas, NV 89103","stars":4.0},
{"business_id":"Bp93pemXBdiEkZqdK-vtgw","name":"Sushi 21","latitude":36.0994204,"longitude":-115.2089924,"full_address":"4965 W Tropicana Ave, Ste 102, Las Vegas, NV 89103","stars":4.0},
{"business_id":"Gu0L9ZxxCQkQbRvRes2MYw","name":"Denny's","latitude":36.1003501539993,"longitude":-115.209940373898,"full_address":"5045 W Tropicana, Las Vegas, NV 89103","stars":3.0},
{"business_id":"OvE1oiSg9gaB9cLGzBPlnw","name":"Four Kegs Sports Bar","latitude":36.1759036894188,"longitude":-115.223261776538,"full_address":"276 N Jones Blvd, Ste B, Las Vegas, NV 89107","stars":4.0},
{"business_id":"Clz5M4GWy4t45vgZhz3Y1A","name":"Lou's Diner","latitude":36.167739,"longitude":-115.205902,"full_address":"431 S Decatur Blvd, Westside, Las Vegas, NV 89107","stars":4.0},
{"business_id":"K9Bv1h5BQPXZFl2Q0FnXrw","name":"Red Lobster","latitude":36.1716799,"longitude":-115.2065845,"full_address":"200 S. Decatur Blvd., Westside, Las Vegas, NV 89107","stars":3.0},
{"business_id":"MLPEpxih9E8NySHbM0FSWQ","name":"Pop's Philly Steaks","latitude":36.166261,"longitude":-115.205674,"full_address":"501 S Decatur Blvd, Westside, Las Vegas, NV 89107","stars":3.5},
{"business_id":"QvRK2dyv4EDxuJ-LuodE2Q","name":"Gordon Biersch Brewery Restaurant","latitude":36.1170027,"longitude":-115.1552488,"full_address":"3987 Paradise Rd, Eastside, Las Vegas, NV 89169","stars":3.5},
{"business_id":"otcGBl0p5cTCfSOr6O7PCg","name":"Metro Pizza","latitude":36.112986,"longitude":-115.16345,"full_address":"Ellis Island Casino & Brewery, 4178 Koval Ln, Eastside, Las Vegas, NV 89109","stars":3.5},
{"business_id":"F3tMbFB1PWpiwEZmVYSxcA","name":"Goldilocks","latitude":36.1387458,"longitude":-115.1379559,"full_address":"2797 S Maryland Pkwy, Ste 18, Eastside, Las Vegas, NV 89109","stars":2.5},
{"business_id":"5f8tdGEQ_L3a9hyEbMjAwQ","name":"Piero's Italian Cuisine","latitude":36.1320061,"longitude":-115.156035,"full_address":"355 Convention Center Dr, Eastside, Las Vegas, NV 89109","stars":4.0},
{"business_id":"SX2jlXA28czDXQBxQ2I0nA","name":"Harrie's Bagelmania","latitude":36.1214158072145,"longitude":-115.144945064804,"full_address":"855 E Twain Ave, Ste 120, Eastside, Las Vegas, NV 89109","stars":4.0},
{"business_id":"8buIr1zBCO7OEcAQSZko7w","name":"Firefly","latitude":36.1188384,"longitude":-115.1544802,"full_address":"3900 Paradise Rd, Eastside, Las Vegas, NV 89169","stars":4.5},
{"business_id":"QJlab4DqvBRJPUfg7Vn5ZQ","name":"Spago","latitude":36.1182729219375,"longitude":-115.173411369324,"full_address":"The Forum Shops at Caesars, 3500 Las Vegas Blvd S, Ste G1, The Strip, Las Vegas, NV 89109","stars":4.0},
{"business_id":"MTSuKAjBcxQKSG0vX2sQLQ","name":"Valentino","latitude":36.1214517,"longitude":-115.1696112,"full_address":"The Venetian, 3355 Las Vegas Blvd S, Ste 106, The Strip, Las Vegas, NV 89109","stars":3.5},
{"business_id":"UBvTnbaRD3h_dD6oXWLCBA","name":"Cañonita","latitude":36.1223238090569,"longitude":-115.169292346839,"full_address":"Venetian Hotel, 3377 Las Vegas Blvd S, The Strip, Las Vegas, NV 89109","stars":3.5},
{"business_id":"nnPrX9mNtV5jKpo2cMjPWQ","name":"Gameworks","latitude":36.1035296,"longitude":-115.1723424,"full_address":"3785 Las Vegas Blvd S, Ste 10, The Strip, Las Vegas, NV 89109","stars":3.0},
{"business_id":"j8qsf2QbpgkUwTe3RORLBw","name":"Los Antojos","latitude":36.1438534,"longitude":-115.1180773,"full_address":"2520 S Eastern Ave, Ste B, Eastside, Las Vegas, NV 89169","stars":4.0},
{"business_id":"w0cZMOwwEPO7TpHa55DfeA","name":"ESPN Zone","latitude":36.1030009,"longitude":-115.1735161,"full_address":"3790 Las Vegas Blvd S, The Strip, Las Vegas, NV 89109","stars":3.5},
{"business_id":"LOef7o-dnn7Z5qGMZCi6pw","name":"Circo","latitude":36.11199,"longitude":-115.177001,"full_address":"Bellagio Las Vegas, 3600 S Las Vegas Blvd, The Strip, Las Vegas, NV 89109","stars":4.0},
{"business_id":"q35bospqfYhJfMsqE79NvA","name":"Dragon Noodle Co.","latitude":36.105289,"longitude":-115.174037,"full_address":"Monte Carlo Resort & Casino, 3770 Las Vegas Blvd S, The Strip, Las Vegas, NV 89109","stars":3.0},
{"business_id":"keV-NU5jaemf9L_7HDX-OA","name":"Bahama Breeze","latitude":36.1151230695324,"longitude":-115.15471958102,"full_address":"375 Hughes Center Dr, Eastside, Las Vegas, NV 89109","stars":4.0},
{"business_id":"8CW8_S_wdUJ-bSJ0pg6RiA","name":"Yokohama Kaigenro","latitude":36.1070782,"longitude":-115.1522596,"full_address":"4503 Paradise Rd, Eastside, Las Vegas, NV 89109","stars":3.5},
{"business_id":"1bJjWGYip-V2PGj4VIwbiQ","name":"Battista's Hole In the Wall","latitude":36.115471,"longitude":-115.1679198,"full_address":"4041 Linq Ln, The Strip, Las Vegas, NV 89109","stars":3.5},
{"business_id":"22xuKtFKYUXhTbIjkxGFQw","name":"Meskerem Ethiopian Restaurant & Market","latitude":36.1334453,"longitude":-115.1602109,"full_address":"252 Convention Center Dr, The Strip, Las Vegas, NV 89109","stars":4.0},
{"business_id":"TuarWzZ4ITf3H7vkPrz-Kw","name":"Benihana","latitude":36.1362575,"longitude":-115.1512526,"full_address":"3000 Paradise Rd, Eastside, Las Vegas, NV 89109","stars":3.5},
{"business_id":"TwxHMCcRdF_CQb_EZ6kPQQ","name":"Canaletto","latitude":36.121176,"longitude":-115.169651,"full_address":"The Venetian, 3355 Las Vegas Blvd S, The Strip, Las Vegas, NV 89109","stars":3.5},
{"business_id":"uW9uoAl4bHoSyP1xacjbDA","name":"Hamada of Japan","latitude":36.1141972,"longitude":-115.1551142,"full_address":"365 E Flamingo Rd, Eastside, Las Vegas, NV 89109","stars":3.0},
{"business_id":"Vk2lc81v4_iO54GzT_fLmw","name":"Hard Rock Cafe","latitude":36.1084453,"longitude":-115.1526346,"full_address":"4475 Paradise Road, Eastside, Las Vegas, NV 89109","stars":3.5},
{"business_id":"tqu42L0qXzkvYKSruOz0IA","name":"Ellis Island Casino & Brewery","latitude":36.1130255,"longitude":-115.1634847,"full_address":"4178 Koval Ln, Eastside, Las Vegas, NV 89109","stars":4.0},
{"business_id":"JSuzEURjXIr0G8WrECZIoA","name":"Gandhi India's Cuisine","latitude":36.1152177,"longitude":-115.1534885,"full_address":"4080 Paradise Rd, Ste 9, Eastside, Las Vegas, NV 89169","stars":3.5},
{"business_id":"m6l-NYfSXe1nqxZShVstIg","name":"NASCAR Cafe","latitude":36.1423378,"longitude":-115.1563054,"full_address":"2535 Las Vegas Blvd S, The Strip, Las Vegas, NV 89109","stars":2.0},
{"business_id":"PPwJTT-eLjapipmyQSgi9A","name":"Fatburger","latitude":36.1052677,"longitude":-115.1724964,"full_address":"3763 Las Vegas Blvd S, The Strip, Las Vegas, NV 89019","stars":3.5},
{"business_id":"rvlKqYNBiLYOeAfb158KAA","name":"Applebee's","latitude":36.129396,"longitude":-115.136364,"full_address":"3340 S Maryland Pkwy, Eastside, Las Vegas, NV 89169","stars":3.0},
{"business_id":"8Z3jgKCdfp57PvT1AFOWtg","name":"Marrakech Mediterranean Restaurant","latitude":36.1188384,"longitude":-115.1544802,"full_address":"3900 Paradise Rd, Ste Y, Eastside, Las Vegas, NV 89169","stars":4.5},
{"business_id":"4uuQIYWBqOGOAmU_E6R2bQ","name":"Michael's Gourmet Room","latitude":36.011478,"longitude":-115.174141,"full_address":"South Point Hotel & Casino, 9777 S Las Vegas Blvd, Southeast, Las Vegas, NV 89183","stars":4.0},
{"business_id":"JkuXXDySMl5fF0hwmLxNCA","name":"Harley-Davidson Las Vegas Cafe","latitude":36.107729,"longitude":-115.1723215,"full_address":"3725 Las Vegas Blvd S, The Strip, Las Vegas, NV 89109","stars":3.0},
{"business_id":"HT-3izSFU8ZMazvSqrADyw","name":"Chin Chin","latitude":36.1030009,"longitude":-115.1735161,"full_address":"New York New York Hotel & Casino, 3790 Las Vegas Blvd S, The Strip, Las Vegas, NV 89109","stars":3.5},
{"business_id":"Ensu96ecI0OReupNS2x7ig","name":"Gallagher's Steakhouse","latitude":36.102515180567,"longitude":-115.17424646191,"full_address":"New York New York Las Vegas Hotel And Casino, 3790 Las Vegas Blvd S, The Strip, Las Vegas, NV 89109","stars":4.0},
{"business_id":"xhh72bIFefOaAxsj4vJJaA","name":"Gonzalez Y Gonzalez Restaurant","latitude":36.1030101,"longitude":-115.1735187,"full_address":"3790 Las Vegas Blvd S, The Strip, Las Vegas, NV 89109","stars":3.5},
{"business_id":"Y3yvG4fGfOR0iJkGuM-NDQ","name":"Ruth's Chris Steak House","latitude":36.1188384,"longitude":-115.1544802,"full_address":"3900 Paradise Rd, Ste 121, Eastside, Las Vegas, NV 89109","stars":3.5},
{"business_id":"uCFoGYwwjXqsRdmD8Ecskw","name":"Portofino by Chef Michael LaPlaca","latitude":36.1240236,"longitude":-115.1703564,"full_address":"The Mirage Hotel & Casino, 3400 Las Vegas Blvd, The Strip, Las Vegas, NV 89109","stars":4.0},
{"business_id":"wQgdpcqcA0HgDVZvrOk7Yw","name":"Kokomo's Steak & Seafood","latitude":36.121360552785,"longitude":-115.17404204278,"full_address":"The Mirage, 3400 Las Vegas Blvd S, The Strip, Las Vegas, NV 89109","stars":3.5},
{"business_id":"Ug97walz3YLxPMrpkktsFg","name":"P.F. Chang's","latitude":36.1134735488783,"longitude":-115.154142379761,"full_address":"4165 Paradise Rd, Eastside, Las Vegas, NV 89169","stars":3.5},
{"business_id":"VVKXPSgU3KeLxrXVPYwStw","name":"Yolie's Brazilian Steak House","latitude":36.11654,"longitude":-115.1542695,"full_address":"3900 Paradise Rd, Ste Z, Eastside, Las Vegas, NV 89169","stars":3.0},
{"business_id":"SSbId_gHGjtXWnObc_S0nw","name":"Oyster Bay Seafood","latitude":36.1107323,"longitude":-115.1722365,"full_address":"3663 Las Vegas Blvd S, The Strip, Las Vegas, NV 89109","stars":3.0},
{"business_id":"8_HGHlHsNdCnTsLQYHteAw","name":"THE Steak House","latitude":36.137041,"longitude":-115.164611,"full_address":"Circus Circus Hotel and Casino, 2880 Las Vegas Blvd S, The Strip, Las Vegas, NV 89109","stars":4.0},
{"business_id":"Z0kyK8wCBNGkkUT9UrMWcg","name":"Del Frisco's Double Eagle Steak House","latitude":36.1179324,"longitude":-115.1553873,"full_address":"3925 Paradise Rd, Eastside, Las Vegas, NV 89169","stars":4.5},
{"business_id":"88CNSyeoKhGn1x0SHvz8Ig","name":"Postrio","latitude":36.1214517,"longitude":-115.1696112,"full_address":"The Grand Canal Shoppes At the Venetian, 3377 Las Vegas Blvd S, Ste 2410, The Strip, Las Vegas, NV 89109","stars":3.5},
{"business_id":"jh7S78tc9oXCDjAjP_OrLw","name":"India Palace","latitude":36.121237,"longitude":-115.151852,"full_address":"505 E Twain Ave, Eastside, Las Vegas, NV 89169","stars":4.0},
{"business_id":"AjO3sJJ_VEsN_RZZT7gUBw","name":"Diamond Chinese Restaurant","latitude":36.1268091,"longitude":-115.1766671,"full_address":"3449 Industrial Rd, Las Vegas, NV 89109","stars":4.0},
{"business_id":"1zXOyqvXGIf-S7vUhNk0pg","name":"Chipotle Mexican Grill","latitude":36.120095,"longitude":-115.171769,"full_address":"3475 Las Vegas Blvd S, The Strip, Las Vegas, NV 89109","stars":3.5},
{"business_id":"5qjymvfMcJCwRmSEyjymgw","name":"Blue Iguana Mexican Express","latitude":36.1369777,"longitude":-115.1633366,"full_address":"Circus Circus Las Vegas, 2800 Las Vegas Blvd S, The Strip, Las Vegas, NV 89109","stars":2.0},
{"business_id":"LcBWyVrCN49IOvkAPNPmZA","name":"McCormick & Schmick's Seafood & Steaks","latitude":36.1150754866253,"longitude":-115.15694132544,"full_address":"335 Hughes Center Dr., Eastside, Las Vegas, NV 89169","stars":3.5},
{"business_id":"6hNibPMNEcMhPRfQuRwjyg","name":"Buca di Beppo Italian Restaurant","latitude":36.1149553631459,"longitude":-115.151866144043,"full_address":"412 E Flamingo Rd, Eastside, Las Vegas, NV 89169","stars":3.0},
{"business_id":"sxRI0je6hAR-MeBDxdyhug","name":"Rainforest Café","latitude":36.1086615706059,"longitude":-115.172141489286,"full_address":"3799 Las Vegas Blvd, The Strip, Las Vegas, NV 89109","stars":2.5},
{"business_id":"DKY2be7dDX2CT_WB_Dk4pQ","name":"Todai Restaurant","latitude":36.1083080499443,"longitude":-115.168164220181,"full_address":"Miracle Mile, 3663 Las Vegas Blvd S, Eastside, Las Vegas, NV 89109","stars":3.5},
{"business_id":"MWkIQNT5ewKwMfKbixgb6Q","name":"California Pizza Kitchen","latitude":36.1275120047043,"longitude":-115.173562126708,"full_address":"3200 Las Vegas Blvd, Sp#1590, The Strip, Las Vegas, NV 89109","stars":3.5},
{"business_id":"APe_0I6DqbNQonSlEkMSEQ","name":"Lawry's The Prime Rib","latitude":36.1151617,"longitude":-115.1597903,"full_address":"4043 Howard Hughes Pkwy, Eastside, Las Vegas, NV 89169","stars":4.5},
{"business_id":"ASOiJ8MmbBTgK2D1_MQrqg","name":"Eiffel Tower Restaurant","latitude":36.1124437020343,"longitude":-115.171587533184,"full_address":"Paris Hotel, 3655 Las Vegas Blvd S, The Strip, Las Vegas, NV 89109","stars":4.0},
{"business_id":"kxAQStRhLvv8fM02OlAZxg","name":"Siam Garden","latitude":36.218985,"longitude":-115.093035,"full_address":"3297 Las Vegas Blvd N, Ste 65, Las Vegas, NV 89115","stars":4.5},
{"business_id":"wMRx5hvL9_739HYiFLw6Hw","name":"Outback Steakhouse","latitude":36.1436176,"longitude":-115.2809087,"full_address":"8671 W Sahara Ave, The Lakes, Las Vegas, NV 89117","stars":3.5},
{"business_id":"GircILJUZdJ2X1Uq7a3mbg","name":"Chili's","latitude":36.1585019,"longitude":-115.2930438,"full_address":"9051 W Charleston Blvd, Westside, Las Vegas, NV 89117","stars":3.5},
{"business_id":"Bpp8unXZmbyxSZS7D93Jog","name":"Chop Chop Wok","latitude":36.2182925,"longitude":-115.2441924,"full_address":"6812 W Cheyenne Ave, Northwest, Las Vegas, NV 89108","stars":4.0},
{"business_id":"vWtr3rsxWjw519SmkFsD5g","name":"Manhattan Pizza","latitude":36.159901,"longitude":-115.278969,"full_address":"8550 W Charleston Blvd, Westside, Las Vegas, NV 89117","stars":3.5},
{"business_id":"o-0IU3bcuXnxflPo14cjUQ","name":"Whole Foods Market","latitude":36.1579701982433,"longitude":-115.288114662335,"full_address":"8855 W Charleston Blvd, Westside, Las Vegas, NV 89117","stars":4.0},
{"business_id":"085Y4PZ5Ezvh6SCRzxYF0g","name":"The Original Graziano's Pizza Restaurant","latitude":36.1297818,"longitude":-115.2746743,"full_address":"8410 W Desert Inn Rd, Westside, Las Vegas, NV 89117","stars":3.5},
{"business_id":"N8NiWbLzee9EOeMnz2MOlw","name":"Claim Jumper","latitude":36.1586208867571,"longitude":-115.290936643883,"full_address":"1100 S Fort Apache Rd, Westside, Las Vegas, NV 89117","stars":3.0},
{"business_id":"_UsqOvmgoNzb_0xWpzwZBg","name":"Chicago Brewing Company","latitude":36.1474961,"longitude":-115.2980652,"full_address":"2201 S Fort Apache Rd, Westside, Las Vegas, NV 89117","stars":3.5},
{"business_id":"mpXeChWrq1bcRWAEgufY9w","name":"Rocco's","latitude":36.1573862,"longitude":-115.2627989,"full_address":"1181 S Buffalo Dr, Ste 115, Westside, Las Vegas, NV 89117","stars":4.0},
{"business_id":"8Eh-lPCEXfGP72gQTct-lw","name":"Go Raw Cafe","latitude":36.1385383,"longitude":-115.2844243,"full_address":"2910 Lake E Dr, The Lakes, Las Vegas, NV 89117","stars":4.0},
{"business_id":"5cybURsCTS0zHH5Qbu0sDQ","name":"King & I","latitude":36.138984,"longitude":-115.284115,"full_address":"2904 Lake E Dr, The Lakes, Las Vegas, NV 89117","stars":4.0},
{"business_id":"wH8J9TI8ReocYZ3N2W04bw","name":"Marie Callender's Restaurant & Bakery","latitude":36.1435013,"longitude":-115.2695428,"full_address":"8175 W Sahara Ave, Westside, Las Vegas, NV 89117","stars":3.0},
{"business_id":"fphcaoXU9ywS5t3zEqYyvA","name":"Mimi's Cafe","latitude":36.1576804,"longitude":-115.2918681,"full_address":"1121 S Fort Apache, Westside, Las Vegas, NV 89117","stars":3.0},
{"business_id":"vBaR0t974nRbvd5tg9lhYQ","name":"Macayo's Mexican Restaurant","latitude":36.1434972,"longitude":-115.2707372,"full_address":"8245 W Sahara Ave, Westside, Las Vegas, NV 89117","stars":3.0},
{"business_id":"Lj_3EwHHkMsbQt1Sxa5Tdw","name":"The Hush Puppy","latitude":36.1585286083656,"longitude":-115.250290610826,"full_address":"7185 W Charleston Blvd, Westside, Las Vegas, NV 89117","stars":4.0},
{"business_id":"9XlLE3H3j5Uv0w8V01yomQ","name":"Lakes Lounge","latitude":36.1384195033864,"longitude":-115.284254123108,"full_address":"2920 Lake East Dr, The Lakes, Las Vegas, NV 89117","stars":4.5},
{"business_id":"R-3BEMIs0SfR8ilLu2vvjw","name":"The Melting Pot","latitude":36.159531469592,"longitude":-115.285329106617,"full_address":"8704 W Charleston Blvd, Westside, Las Vegas, NV 89117","stars":4.0},
{"business_id":"SfBHIShLosHKWWLFuDFUhQ","name":"Great Wall Chinese Restaurant","latitude":36.1592601469384,"longitude":-115.171997658153,"full_address":"2202 W Charleston Blvd, Downtown, Las Vegas, NV 89102","stars":4.0},
{"business_id":"YNNuQ1TfcHrs5OyTaC1QLQ","name":"Capriotti's Sandwich Shop","latitude":36.1445189,"longitude":-115.2757054,"full_address":"8450 W Sahara Ave, Ste 116, Westside, Las Vegas, NV 89117","stars":3.5},
{"business_id":"8lLkZOfXbSMumZC-v08GaA","name":"Paymons Mediterranean Cafe & Hookah Lounge","latitude":36.1447995,"longitude":-115.2739605,"full_address":"8380 W Sahara Ave, Westside, Las Vegas, NV 89117","stars":3.5},
{"business_id":"ky_0S-PRZ3jldfFgzBDmsg","name":"Rubio's","latitude":36.144938,"longitude":-115.2989956,"full_address":"9310 W Sahara Ave, Westside, Las Vegas, NV 89117","stars":4.0},
{"business_id":"tQQxehL2ZVGp7MqAxtSU_g","name":"Sushi Fever","latitude":36.1431984312255,"longitude":-115.264456426464,"full_address":"7985 W Sahara Ave, Ste 105, Westside, Las Vegas, NV 89117","stars":4.0},
{"business_id":"QySefgRL-TSHDNEd336FtA","name":"Roy's Restaurant","latitude":36.158503,"longitude":-115.285177,"full_address":"8701 W Charleston Blvd, Westside, Las Vegas, NV 89117","stars":4.0},
{"business_id":"5FE1Y9cZ-YOQA943nTi7cA","name":"Rosemary's Restaurant","latitude":36.1427696,"longitude":-115.2692867,"full_address":"8125 W Sahara Ave, Ste 110, Westside, Las Vegas, NV 89117","stars":4.5},
{"business_id":"jG3R4dejS9aF8MHGbE8ucQ","name":"Pearl Wok To Go","latitude":36.159901,"longitude":-115.278969,"full_address":"8550 W Charleston Blvd, Ste 100, Westside, Las Vegas, NV 89117","stars":3.5},
{"business_id":"2l4UTdi_F9zVZ1Kv4Fj-zQ","name":"Hedary's Mediterranean Restaurant","latitude":36.1430817,"longitude":-115.2536257,"full_address":"7365 W Sahara Ave, Ste K, Westside, Las Vegas, NV 89117","stars":4.0},
{"business_id":"vFHKhV_v1ypXCgPlj79A3Q","name":"Villa Pizza","latitude":36.1281441,"longitude":-115.2789626,"full_address":"3385 S Durango Dr, Spring Valley, Las Vegas, NV 89117","stars":4.0},
{"business_id":"qy40Nr-xCumWo1r7SNhbYw","name":"Jersey Mike's Subs","latitude":36.1595213,"longitude":-115.2875996,"full_address":"8780 W. Charleston Blvd., Ste 102, Westside, Las Vegas, NV 89117","stars":3.5},
{"business_id":"YK9JsdBPgMvVSIGMuplX6g","name":"Three Angry Wives","latitude":36.1593779,"longitude":-115.2881423,"full_address":"8820 W Charleston Blvd, Ste 105, Westside, Las Vegas, NV 89117","stars":3.0},
{"business_id":"1_wBj6Uuk9-Q03GdBiIbTA","name":"Smith's Food & Drug Stores","latitude":36.1577488,"longitude":-115.3120745,"full_address":"9851 W Charleston Blvd, Westside, Las Vegas, NV 89117","stars":3.5},
{"business_id":"EnKI5w-x0_ZPAS_3QPYFtQ","name":"Panevino Italian Grille","latitude":36.07082622848,"longitude":-115.162891042784,"full_address":"246 Via Antonio Ave, Southeast, Las Vegas, NV 89119","stars":4.0},
{"business_id":"5yMcbS15CfhSvVQWCe79tw","name":"Metro Pizza","latitude":36.1003692,"longitude":-115.134347,"full_address":"1395 E Tropicana Ave, Southeast, Las Vegas, NV 89119","stars":4.0},
{"business_id":"uSbUk-3UcgzTPpzyL9dgJQ","name":"Memphis Championship Barbecue","latitude":36.0577242,"longitude":-115.1225863,"full_address":"2250 E Warm Springs Rd, Southeast, Las Vegas, NV 89119","stars":3.0},
{"business_id":"abN3TI-6TkzvdjeOCjXawQ","name":"Sonic Drive-In","latitude":36.0578552,"longitude":-115.1234868,"full_address":"2082 E Warm Springs Rd, Southeast, Las Vegas, NV 89119","stars":2.5},
{"business_id":"9sjrXFjhhWbCyvdmBsvlNw","name":"Pizza My Dear","latitude":36.0573008728758,"longitude":-115.128300927913,"full_address":"1725 E Warm Springs Rd, Ste 9, Southeast, Las Vegas, NV 89119","stars":4.0},
{"business_id":"BfTGq2PskVpTaDRtG5baeQ","name":"Chipotle Mexican Grill","latitude":36.10707963086,"longitude":-115.13706448809,"full_address":"4530 S Maryland Pkwy, University, Las Vegas, NV 89119","stars":3.5},
{"business_id":"XoW1XxAqxuh8EadwtHSyig","name":"Tropical Smoothie Cafe","latitude":36.0574572,"longitude":-115.120315,"full_address":"7291 S Eastern Ave, Southeast, Las Vegas, NV 89119","stars":2.5},
{"business_id":"5DilfgFM7DJDG8Bws05sFA","name":"Nathan's Famous","latitude":36.095424,"longitude":-115.175922,"full_address":"Luxor Hotel and Casino Food Court, 3900 Las Vegas Blvd S, The Strip, Las Vegas, NV 89109","stars":3.0},
{"business_id":"Q_Rwcv9APBLggk2KAsBEvg","name":"Border Grill","latitude":36.0899498632646,"longitude":-115.175814183117,"full_address":"Mandalay Bay Resort & Casino, 3950 S Las Vegas Blvd, The Strip, Las Vegas, NV 89119","stars":4.0},
{"business_id":"UpkfQApZT5rctZicZ_ZTgw","name":"Roy's -  Las Vegas","latitude":36.11511815,"longitude":-115.1497355,"full_address":"620 E Flamingo Rd, Eastside, Las Vegas, NV 89119","stars":4.5},
{"business_id":"eLPld7Q17XxlclFGzZQX5g","name":"Yama Sushi","latitude":36.115499546121,"longitude":-115.135005832649,"full_address":"1350 E Flamingo Rd, Ste 18, Eastside, Las Vegas, NV 89119","stars":4.0},
{"business_id":"aLWvaNTOUr1wdOizitoOuA","name":"Blueberry Hill Family Restaurant","latitude":36.1142203,"longitude":-115.1327808,"full_address":"1505 E Flamingo Rd, Eastside, Las Vegas, NV 89119","stars":4.0},
{"business_id":"8eyCwj1ZfwSn3fDvnhToTQ","name":"Red Lobster","latitude":36.114311,"longitude":-115.1204951,"full_address":"2325 E Flamingo Road, Eastside, Las Vegas, NV 89119","stars":3.5},
{"business_id":"y6sNNP97UCSl_p2o5Wm40A","name":"Paymon's Mediterranean Cafe & Lounge","latitude":36.1136516,"longitude":-115.1383819,"full_address":"4147 S Maryland Pkwy, Eastside, Las Vegas, NV 89119","stars":4.0},
{"business_id":"5FPU_0VSLtR2yY7IQzaH5g","name":"Kabuki Japanese Restaurant","latitude":36.067535799481,"longitude":-115.177971954296,"full_address":"6605 Las Vegas Blvd S, Ste 147, Southeast, Las Vegas, NV 89119","stars":3.5},
{"business_id":"HDphuDtcxua590pKTPfY4Q","name":"Olive Garden Italian Restaurant","latitude":36.1140429,"longitude":-115.1322115,"full_address":"1545 Flamingo Road, Eastside, Las Vegas, NV 89119","stars":3.5},
{"business_id":"Y606ZDAYwBug3CUwgHZQZA","name":"Capriotti's Sandwich Shop","latitude":36.108898,"longitude":-115.151261,"full_address":"4480 Paradise Rd, Eastside, Las Vegas, NV 89169","stars":4.0},
{"business_id":"1xZbo0U7inuNHjx1bElwdg","name":"IHOP","latitude":36.120539883577,"longitude":-115.13708251178,"full_address":"3780 S Maryland Pkwy, Eastside, Las Vegas, NV 89119","stars":2.5},
{"business_id":"s5yzZITWU_RcJzWOgjFecw","name":"Sergio's Italian Gardens","latitude":36.100414,"longitude":-115.1265829,"full_address":"1955 E Tropicana Ave, Eastside, Las Vegas, NV 89119","stars":4.0},
{"business_id":"VJC-XcPKeIxpIhYncxZXLQ","name":"Felipito's Mexican Food","latitude":36.1006247,"longitude":-115.1350607,"full_address":"1325 E Tropicana Ave, Southeast, Las Vegas, NV 89119","stars":3.5},
{"business_id":"r70nuDpkR5-g1oShW2ANvA","name":"Crown & Anchor British Pub","latitude":36.101467,"longitude":-115.134574,"full_address":"1350 E Tropicana Ave, University, Las Vegas, NV 89119","stars":3.5},
{"business_id":"S4mUKPBHQeFLuPl2y3-Njg","name":"King & I","latitude":36.1001646,"longitude":-115.1389881,"full_address":"1107 E Tropicana Ave, Southeast, Las Vegas, NV 89119","stars":3.0},
{"business_id":"ecpYgTTQuXzmYNGxGTvbhw","name":"Lupo by Wolfgang Puck","latitude":36.092078,"longitude":-115.175303,"full_address":"Mandalay Bay Resort & Casino, 3950 S Las Vegas Blvd, The Strip, Las Vegas, NV 89119","stars":3.5},
{"business_id":"hU1wB9jePbd0dhTBcrpYvQ","name":"Cuba Cafe","latitude":36.1002598,"longitude":-115.1251555,"full_address":"2055 E Tropicana Ave, Eastside, Las Vegas, NV 89119","stars":4.0},
{"business_id":"LsArM1PhbqvXK3lDK-Ch_w","name":"Stephano's Greek & Mediterranean Grill","latitude":36.1049744,"longitude":-115.1359993,"full_address":"4632 S Maryland Pkwy, University, Las Vegas, NV 89119","stars":4.0},
{"business_id":"w4gafqTSIkBjqPufGEEh6Q","name":"Blue Ox Central","latitude":36.0803627,"longitude":-115.117568,"full_address":"6000 S Eastern Ave, Southeast, Las Vegas, NV 89119","stars":4.0},
{"business_id":"GoKArNsn4O4RQi3M2Choog","name":"Stake Out","latitude":36.1027088,"longitude":-115.1363023,"full_address":"4800 S Maryland Pkwy, University, Las Vegas, NV 89119","stars":4.0},
{"business_id":"8D53RjbrEE3AUjnUpZ0TVg","name":"Vons","latitude":36.1001295,"longitude":-115.1384131,"full_address":"1131 E Tropicana Ave, Southeast, Las Vegas, NV 89119","stars":2.5},
{"business_id":"UqUSbnNUael8_ihzI-EIAw","name":"Jason's Deli","latitude":36.1178702,"longitude":-115.1367954,"full_address":"3910 S Maryland Pkwy, Eastside, Las Vegas, NV 89119","stars":4.0},
{"business_id":"gkWEjZIVcrUerEzed6IKpg","name":"Mint Indian Bistro","latitude":36.1148754728254,"longitude":-115.147404670715,"full_address":"730 E Flamingo Rd, Ste 10, Eastside, Las Vegas, NV 89119","stars":4.0},
{"business_id":"UWPQelWfvXOFpFQXTsVzow","name":"Aloha Kitchen","latitude":36.1036270106689,"longitude":-115.137769141443,"full_address":"4745 S Maryland Pkwy, University, Las Vegas, NV 89119","stars":3.5},
{"business_id":"nxflzDedizEvyvxqhz1ghw","name":"Walmart Supercenter","latitude":36.0979743,"longitude":-115.1083946,"full_address":"3075 E Tropicana Ave, Southeast, Las Vegas, NV 89121","stars":3.0},
{"business_id":"d6a32QfHpXLdTdTPuR9lMg","name":"The Broiler","latitude":36.133471580939,"longitude":-115.08464388335,"full_address":"Boulder Station Hotel & Casino, 4118 Boulder Highway, Las Vegas, NV 89121","stars":4.0},
{"business_id":"PayaNmMeZFOFeS_jo7eB8g","name":"Casa Di Amore","latitude":36.1003826,"longitude":-115.1116708,"full_address":"2850 E Tropicana Ave, Eastside, Las Vegas, NV 89121","stars":4.5},
{"business_id":"X453V4J1EayCam-DU9d4LQ","name":"Blueberry Hill Family Restaurant","latitude":36.1161975,"longitude":-115.092388,"full_address":"3790 E Flamingo Rd, Eastside, Las Vegas, NV 89121","stars":4.0},
{"business_id":"4ZuYJjjFrqgyDEeYoizyIw","name":"Wo Fat","latitude":36.1299291,"longitude":-115.0936019,"full_address":"3700 E Desert Inn Rd, Ste 1, Eastside, Las Vegas, NV 89121","stars":3.5},
{"business_id":"I9cgZigHeRXhNGpuAyXyjg","name":"Chapala's Mexican Restaurant","latitude":36.099641,"longitude":-115.1039,"full_address":"3331 E Tropicana Ave, Southeast, Las Vegas, NV 89121","stars":3.5},
{"business_id":"k5VizHcjHhEpC7Qv4o2m5A","name":"Geisha Steakhouse","latitude":36.1296013,"longitude":-115.0927902,"full_address":"3751 E Desert Inn Rd, Eastside, Las Vegas, NV 89121","stars":4.5},
{"business_id":"gSJ8rsEkwmDF_L-A84YpmQ","name":"Capriotti's Sandwich Shop","latitude":36.1164924,"longitude":-115.0903522,"full_address":"3830 E Flamingo Rd, Ste E5, Eastside, Las Vegas, NV 89121","stars":4.0},
{"business_id":"yhR_thWkjsa5V4bMhFTN_g","name":"Thai Room","latitude":36.0990599,"longitude":-115.1024835,"full_address":"3355 E Tropicana Ave, Ste D, Southeast, Las Vegas, NV 89121","stars":4.0},
{"business_id":"rMSje59v2QY82OBvE1zBuA","name":"Original Lindo Michoacan","latitude":36.1293621,"longitude":-115.1135114,"full_address":"2655 E Desert Inn Rd, Eastside, Las Vegas, NV 89121","stars":4.0},
{"business_id":"n30q_HaFRWmjFR_bXh9_dg","name":"Cafe Verdi","latitude":36.1161328,"longitude":-115.1378447,"full_address":"4023 S Maryland Pkwy, Eastside, Las Vegas, NV 89119","stars":2.0},
{"business_id":"QNAH_yX7VZj-dQRwDKxsrQ","name":"Great Buns Bakery","latitude":36.100745,"longitude":-115.103546,"full_address":"3270 E Tropicana Ave, Eastside, Las Vegas, NV 89121","stars":4.5},
{"business_id":"tnj_ngdNwdnQEvi3NSNWsw","name":"Ichabod's Lounge","latitude":36.1166840723285,"longitude":-115.103589329419,"full_address":"3300 E Flamingo Rd, Eastside, Las Vegas, NV 89121","stars":4.0},
{"business_id":"BVRWDjbj9g712L5INfhKog","name":"Sushi On Tropicana","latitude":36.099319,"longitude":-115.114283,"full_address":"2625 E Tropicana Ave, Southeast, Las Vegas, NV 89121","stars":3.5},
{"business_id":"5kOYuJtRjAUWZGDkP8vnRw","name":"Beijing Chinese Cuisine","latitude":36.0211192,"longitude":-115.1190908,"full_address":"9255 S Eastern Ave, Ste 330-4, Southeast, Las Vegas, NV 89123","stars":4.0},
{"business_id":"lzoTXcynmfZ6Ler5B4HbfQ","name":"Thai House","latitude":36.0105784997894,"longitude":-115.134144853844,"full_address":"9850 S Maryland Pkwy, Ste 17, Southeast, Las Vegas, NV 89183","stars":3.5},
{"business_id":"qt1L3A6TpSw_36uFsugUew","name":"T-Bird Lounge & Restaurant","latitude":36.0176758,"longitude":-115.1188775,"full_address":"9465 S Eastern Ave, Southeast, Las Vegas, NV 89123","stars":3.5},
{"business_id":"gu5Yj92bnXnxNyMdxO14VA","name":"Casa Don Juan  - Downtown","latitude":36.157156,"longitude":-115.1538305,"full_address":"1204 S Main St, Downtown, Las Vegas, NV 89104","stars":3.5},
{"business_id":"Mf3kczr0ZQXPic1F7QS8qA","name":"Popeyes Louisiana Kitchen","latitude":36.041889304933,"longitude":-115.170387817998,"full_address":"8132 Las Vegas Blvd S, Southeast, Las Vegas, NV 89123","stars":2.5},
{"business_id":"PMzOFEIcK9j4DPZ6jl9y2A","name":"Lefty's Pizza","latitude":36.006922,"longitude":-115.146159,"full_address":"780 E Pyle Ave, Southeast, Las Vegas, NV 89183","stars":4.0},
{"business_id":"yD1dRYi7USzhYVKiqZ7JVg","name":"Sushi Mon","latitude":36.0119105,"longitude":-115.1361159,"full_address":"9770 S Maryland Pkwy, Ste 3, Southeast, Las Vegas, NV 89183","stars":4.0},
{"business_id":"E4AkhjuG-DY2DTcBrkxkGg","name":"The Bootlegger Italian Bistro","latitude":36.0489921569824,"longitude":-115.171539306641,"full_address":"7700 Las Vegas Blvd S, Ste 1, Southeast, Las Vegas, NV 89123","stars":4.0},
{"business_id":"feT6zWjxJR-VaWrV_pQ5AA","name":"Verrazano Pizza","latitude":36.0410492,"longitude":-115.12081,"full_address":"2381 E Windmill Ln, Ste 20, Southeast, Las Vegas, NV 89123","stars":4.0},
{"business_id":"GH24nKQEuoBf-SvLlim8rQ","name":"Mama Depalma's Pizza & Bistro","latitude":36.0106875,"longitude":-115.1371278,"full_address":"9845 S Maryland Pkwy, Ste A, Southeast, Las Vegas, NV 89123","stars":3.5},
{"business_id":"vh9CQdZj-1N21kW0qgKmnQ","name":"Chopstix","latitude":36.041101,"longitude":-115.12046,"full_address":"2381 E Windmill Ln, Southeast, Las Vegas, NV 89123","stars":3.5},
{"business_id":"2DoTQ_lN_OvmZUUsd1abDA","name":"Vons","latitude":36.0412926,"longitude":-115.1527614,"full_address":"475 E Windmill Ln, Southeast, Las Vegas, NV 89123","stars":3.5},
{"business_id":"FJe0PrtbRzP2jZZYctdkXw","name":"Boulevard Bar & Grille","latitude":36.010762,"longitude":-115.171766,"full_address":"9860 Las Vegas Blvd S, Southeast, Las Vegas, NV 89183","stars":4.0},
{"business_id":"pzF-KpQF8nRMyTUNu5jp2g","name":"Denny's","latitude":36.0198206581521,"longitude":-115.118057951331,"full_address":"9320 S Eastern Ave, Southeast, Las Vegas, NV 89123","stars":3.5},
{"business_id":"-ffo-JFhFj2kR6kZL4qYhg","name":"The Cracked Egg","latitude":36.2191781,"longitude":-115.2624712,"full_address":"7660 W Cheyenne Ave, Northwest, Las Vegas, NV 89129","stars":4.0},
{"business_id":"ODlUjRZ4mgrN93YmZFKPFg","name":"Sonic","latitude":36.2187196,"longitude":-115.2568106,"full_address":"7390 W Cheyenne Ave, Northwest, Las Vegas, NV 89129","stars":3.5},
{"business_id":"hGe8h7iEAEVbCYH4E2G42g","name":"Dona Maria Tamales Restaurant","latitude":36.21913,"longitude":-115.2517494,"full_address":"3205 N Tenaya Way, Northwest, Las Vegas, NV 89129","stars":3.5},
{"business_id":"4sxLJ-m3rhjnSSIEC_vqQQ","name":"Capriotti's Sandwich Shop","latitude":36.218708014143,"longitude":-115.259042287394,"full_address":"7440 W Cheyenne, Ste 101, Northwest, Las Vegas, NV 89128","stars":3.5},
{"business_id":"ns-NxkoIKUJgfZ_WSTzLdw","name":"Gyro Time Restaurant","latitude":36.2191781,"longitude":-115.2624712,"full_address":"7660 W Cheyenne Avenue, Northwest, Las Vegas, NV 89129","stars":3.5},
{"business_id":"t-oEAKaswXxRUjvJrLr-Vw","name":"Cook On Wok","latitude":36.2190695,"longitude":-115.2761585,"full_address":"8380 W Cheyenne Ave, Northwest, Las Vegas, NV 89129","stars":3.0},
{"business_id":"3GnkK4g6XHL2BbIQ7LhfAQ","name":"New Grand China","latitude":36.3004468,"longitude":-115.2811457,"full_address":"8450 Farm Rd Ste 150, Centennial, Las Vegas, NV 89131","stars":3.0},
{"business_id":"M7AMdpRP1rOol5JMYeg3dg","name":"Samurai Sam's","latitude":36.160416255912,"longitude":-115.32144370666,"full_address":"10300 West Charleston Blvd. #7, Summerlin, Las Vegas, NV 89135","stars":3.5},
{"business_id":"PAg_-9MtV7lX5rGb7yjLrQ","name":"Ho Ho Ho Chinese Gourmet","latitude":36.1585361877296,"longitude":-115.317069988733,"full_address":"10217 W Charleston Blvd, Summerlin, Las Vegas, NV 89135","stars":2.0},
{"business_id":"LcyRdze96F97xuiV1AG2eg","name":"Brando's Sportsbar","latitude":36.0384623,"longitude":-115.1935023,"full_address":"3725 Blue Diamond Rd, Southwest, Las Vegas, NV 89139","stars":3.5},
{"business_id":"33Am9frs0Bt48Zlwk1uVHQ","name":"Verrazano Pizza","latitude":36.171328,"longitude":-115.2448746,"full_address":"240 S Rainbow Blvd, Ste 3, Westside, Las Vegas, NV 89145","stars":4.0},
{"business_id":"kpdLm43TItSM2415L_V1FQ","name":"Spiedini Ristorante","latitude":36.1757303,"longitude":-115.2910289,"full_address":"221 N Rampart Blvd, Westside, Las Vegas, NV 89145","stars":3.5},
{"business_id":"co0vxQ8ecXiBy2sGDeHi8A","name":"Jamms Restaurant","latitude":36.159706,"longitude":-115.245078,"full_address":"1029 S Rainbow Blvd, Westside, Las Vegas, NV 89145","stars":4.0},
{"business_id":"WsqAILgPniet5urqPFHocw","name":"Tokyoto Sushi","latitude":36.1605051,"longitude":-115.2899166,"full_address":"1000 S Rampart Blvd, Westside, Las Vegas, NV 89145","stars":2.5},
{"business_id":"WZHIYPqGPaPQW97GNrkqjQ","name":"Jason's Deli","latitude":36.1604696,"longitude":-115.2898892,"full_address":"1000 S Rampart Blvd, Westside, Las Vegas, NV 89145","stars":3.5},
{"business_id":"k2zE7IsSi2lVpnrjqZXAdw","name":"P.F. Chang's","latitude":36.1594047644784,"longitude":-115.291926115751,"full_address":"1095 South Rampart Blvd, Westside, Las Vegas, NV 89145","stars":3.5},
{"business_id":"p879GY3lAFTwkrGOihAn5A","name":"Kobe Sushi Bar","latitude":36.1160268,"longitude":-115.2944204,"full_address":"9340 W Flamingo Rd, Spring Valley, Las Vegas, NV 89147","stars":3.0},
{"business_id":"QgeyXkZKSOIS_85pDIVuQQ","name":"Sedona Lounge","latitude":36.1156577,"longitude":-115.301212,"full_address":"9580 W Flamingo Rd, Spring Valley, Las Vegas, NV 89147","stars":3.5},
{"business_id":"reCYCgskR-ZAtUqRenu-Mg","name":"Little Dumpling","latitude":36.115944392641,"longitude":-115.294595908752,"full_address":"9340 W Flamingo Rd, Spring Valley, Las Vegas, NV 89147","stars":3.0},
{"business_id":"bB1bVvOMkfvWFVbNmRl_VA","name":"Hikari","latitude":36.1129308,"longitude":-115.2613745,"full_address":"4175 S Buffalo Dr, Spring Valley, Las Vegas, NV 89147","stars":3.5},
{"business_id":"unxjJu6JOxVKwGTVdtaXMQ","name":"International House of Pancakes","latitude":36.2713720671095,"longitude":-115.262992989036,"full_address":"5970 Centennial Center Blvd, Centennial, Las Vegas, NV 89149","stars":3.0},
{"business_id":"7N5W7tIRFRNBMPULy-P9-g","name":"Mark Rich's New York Pizza & Pasta","latitude":36.271169,"longitude":-115.2677588,"full_address":"7930 W Tropical Pkwy, Centennial, Las Vegas, NV 89149","stars":3.5},
{"business_id":"lliksv-tglfUz1T3B3vgvA","name":"Lotus of Siam","latitude":36.1437673036142,"longitude":-115.140884698148,"full_address":"953 E Sahara Ave, Ste A5, Eastside, Las Vegas, NV 89104","stars":4.0},
{"business_id":"6dIZ2hjHfjV2ZaxS2H-fcw","name":"Osaka Japanese Bistro Summerlin","latitude":36.1956731299478,"longitude":-115.257341096245,"full_address":"7511 W Lake Mead Blvd, Las Vegas, NV 89128","stars":3.0},
{"business_id":"rP76z9iDOFczywAiee-l7A","name":"Red Square Restaurant & Vodka Lounge","latitude":36.0927885119438,"longitude":-115.176156283356,"full_address":"3950 Las Vegas Blvd S, The Strip, Las Vegas, NV 89119","stars":4.0},
{"business_id":"dMwwBt0BcE4zfIiBBXMogg","name":"Jasmine","latitude":36.11199,"longitude":-115.177001,"full_address":"Bellagio Las Vegas, 3600 S Las Vegas Blvd, The Strip, Las Vegas, NV 89109","stars":3.5},
{"business_id":"H6CJflwclNpttYrtsBMsVg","name":"Emeril's New Orleans Fish House","latitude":36.105982,"longitude":-115.169191,"full_address":"MGM Grand Hotel and Casino, 3799 Las Vegas Blvd S, Eastside, Las Vegas, NV 89109","stars":3.5},
{"business_id":"xyTJYlbE_MLouK6rCou6zg","name":"Burger Bar","latitude":36.092875,"longitude":-115.176247,"full_address":"Mandalay Bay Hotel & Casino, 3930 Las Vegas Blvd S, The Strip, Las Vegas, NV 89109","stars":4.0},
{"business_id":"DO3Gk17RyJVW7zYMCtYPnw","name":"Mesa Grill","latitude":36.1171245659156,"longitude":-115.174792706967,"full_address":"Caesars Palace Las Vegas Hotel And Casino, 3570 Las Vegas Boulevard South, The Strip, Las Vegas, NV 89109","stars":4.0},
{"business_id":"q_DrPmiLrHEpR_SQvQXELQ","name":"Nobu","latitude":36.1091636135889,"longitude":-115.153493285179,"full_address":"Hard Rock Hotel & Casino, 4455 Paradise Rd, Eastside, Las Vegas, NV 89169","stars":4.0},
{"business_id":"YacTpiq0ZptFcXD7I-kdGA","name":"Delmonico Steakhouse","latitude":36.1229571738337,"longitude":-115.168854296207,"full_address":"The Venetian, 3355 Las Vegas Blvd S, The Strip, Las Vegas, NV 89109","stars":4.0},
{"business_id":"5IWu0xhlZEopvIz3w7o_3w","name":"Palm Restaurant","latitude":36.118329,"longitude":-115.176032,"full_address":"Caesar's Palace, 3500 Las Vegas Blvd S, The Strip, Las Vegas, NV 89109","stars":4.0},
{"business_id":"GAA2AxjySMqN-p-n89SJIA","name":"Ichiban Sushi","latitude":36.1142773,"longitude":-115.1709763,"full_address":"3645 Las Vegas Blvd S, The Strip, Las Vegas, NV 89109","stars":3.5},
{"business_id":"4bEjOyTaDG24SY5TxsaUNQ","name":"Mon Ami Gabi","latitude":36.1129524773428,"longitude":-115.172588519464,"full_address":"3655 Las Vegas Blvd S, The Strip, Las Vegas, NV 89109","stars":4.0},
{"business_id":"UO80ofDOenKF4QWR2z-oKA","name":"Andre's","latitude":36.104612897335,"longitude":-115.174527168274,"full_address":"Monte Carlo Resort & Casino, 3770 Las Vegas Blvd S, The Strip, Las Vegas, NV 89109","stars":4.5},
{"business_id":"AHzxXDQs4y5htkgD5jIpQA","name":"V Bar","latitude":36.1228519608501,"longitude":-115.169064938842,"full_address":"Venetian Resort Hotel Casino, 3355 Las Vegas Blvd S, The Strip, Las Vegas, NV 89109","stars":3.5},
{"business_id":"SsTxjxo8qvqBMvan1rzNzg","name":"The Peppermill Restaurant & Fireside Lounge","latitude":36.1336130335947,"longitude":-115.163122017274,"full_address":"2985 Las Vegas Blvd S, The Strip, Las Vegas, NV 89109","stars":4.0},
{"business_id":"E_nRKWLMGKiCW7ft5FPYvw","name":"BOA Steakhouse","latitude":36.175,"longitude":-115.136389,"full_address":"The Forum Shops At Caesars, 3500 Las Vegas Blvd S, Las Vegas, NV 89136","stars":4.0},
{"business_id":"HbUQ_3dlm3uCacmhTEMnuA","name":"Tom Colicchio's Craftsteak","latitude":36.1027496035187,"longitude":-115.168667324081,"full_address":"MGM Grand Hotel and Casino, 3799 Las Vegas Boulevard South, Eastside, Las Vegas, NV 89109","stars":4.0},
{"business_id":"UEUQS4z7s-DRzQjky92KYw","name":"Pink Taco","latitude":36.1100828,"longitude":-115.1538714,"full_address":"Hard Rock Hotel & Casino, 4455 Paradise Rd, Eastside, Las Vegas, NV 89169","stars":3.5},
{"business_id":"tFU2Js_nbIZOrnKfYJYBBg","name":"Bouchon at The Venetian","latitude":36.1222934090182,"longitude":-115.17027887929,"full_address":"3355 Las Vegas Blvd S, Venezia Tower, 10th floor, The Strip, Las Vegas, NV 89109","stars":4.0},
{"business_id":"KjymOs12Mpy0Kd54b7T9MA","name":"Olives","latitude":36.111978,"longitude":-115.17698,"full_address":"Bellagio Las Vegas, 3600 S Las Vegas Blvd, The Strip, Las Vegas, NV 89109","stars":4.0},
{"business_id":"WGNzivxscW54VZ2BfeLmmg","name":"Canyon Ranch Cafe","latitude":36.1220839,"longitude":-115.1680316,"full_address":"The Venetian, 3355 Las Vegas Blvd S, The Strip, Las Vegas, NV 89109","stars":3.5},
{"business_id":"4EhFsjWBSaSp_5TkkLp7LA","name":"Le Cirque","latitude":36.1131265600234,"longitude":-115.175263026343,"full_address":"Bellagio Las Vegas, 3600 S Las Vegas Blvd, The Strip, Las Vegas, NV 89109","stars":4.5},
{"business_id":"_VN5hYv1VgNIBgwxTQZ_1Q","name":"Mr. Lucky's 24-7","latitude":36.1082943795971,"longitude":-115.15258954245,"full_address":"Hard Rock Hotel & Casino, 4455 Paradise Rd, Eastside, Las Vegas, NV 89169","stars":3.5},
{"business_id":"bmNPNlCLDplWB55ic3Bixg","name":"Shibuya","latitude":36.1027027605546,"longitude":-115.169267336151,"full_address":"MGM Grand Hotel and Casino, 3799 Las Vegas Boulevard South, Eastside, Las Vegas, NV 89109","stars":4.0},
{"business_id":"dl5K9Hc2kUcGcrVIQAOhWQ","name":"Sterling Brunch","latitude":36.114355,"longitude":-115.17099,"full_address":"Bally's Las Vegas Hotel & Casino, 3645 Las Vegas Boulevard S, The Strip, Las Vegas, NV 89109","stars":4.0},
{"business_id":"ES-j5yNTgmgbL4He0h6otA","name":"Hofbräuhaus Las Vegas","latitude":36.1077570331461,"longitude":-115.151691256997,"full_address":"4510 Paradise Rd, Eastside, Las Vegas, NV 89169","stars":3.5},
{"business_id":"6qXQQOWdUZiJmWVqkWB-3w","name":"Il Fornaio","latitude":36.1285956625476,"longitude":-115.171172715344,"full_address":"New York-New York Hotel and Casino, 3790 Las Vegas Blvd. Ste 13, The Strip, Las Vegas, NV 89109","stars":3.5},
{"business_id":"mU57qypB4nLScxgowHNEUA","name":"The Buffet at Monte Carlo","latitude":36.1047813604414,"longitude":-115.174662672527,"full_address":"Monte Carlo Hotel and Casino, 3770 Las Vegas Blvd S, The Strip, Las Vegas, NV 89109","stars":2.5},
{"business_id":"vk2V2-6-OOMqY16PlbS4MA","name":"Tiffany's Cafe","latitude":36.150704,"longitude":-115.15304,"full_address":"1700 Las Vegas Blvd S, Las Vegas, NV 89104","stars":4.0},
{"business_id":"CZjcFdvJhksq9dy58NVEzw","name":"The Buffet at Bellagio","latitude":36.113160408814,"longitude":-115.17640884972,"full_address":"Bellagio Las Vegas, 3600 S Las Vegas Blvd, The Strip, Las Vegas, NV 89109","stars":3.5},
{"business_id":"SLyacGZuMUKqrQJEooSkjw","name":"Spice Market Buffet","latitude":36.1102503133479,"longitude":-115.171666064417,"full_address":"Planet Hollywood Las Vegas Resort & Casino, 3667 Las Vegas Boulevard South, The Strip, Las Vegas, NV 89109","stars":3.0},
{"business_id":"n_QAA70NrnGIsGjog3HF_Q","name":"Costa di Mare","latitude":36.1265953,"longitude":-115.1653652,"full_address":"3131 Las Vegas Blvd. South, The Strip, Las Vegas, NV 89109","stars":3.5},
{"business_id":"voPFKvVFm7b01xUyJixFYA","name":"AquaKnox","latitude":36.1218130344488,"longitude":-115.169369494629,"full_address":"The Venetian Hotel Resort & Casino, 3355 Las Vegas Blvd S, The Strip, Las Vegas, NV 89109","stars":4.0},
{"business_id":"5rDosv0aIBhLg81IMSnlyg","name":"SW Steakhouse","latitude":36.1261701368,"longitude":-115.16699849767,"full_address":"3131 Las Vegas Blvd S, The Strip, Las Vegas, NV 89109","stars":4.0},
{"business_id":"UVBElUlajafZDSiBK2pltw","name":"Diego Mexican Cuisine","latitude":36.1035089262488,"longitude":-115.168580690643,"full_address":"3799 Las Vegas Boulevard S, Eastside, Las Vegas, NV 89109","stars":3.5},
{"business_id":"tz1OiXy_smAtZx80oRQttQ","name":"Cafe Belle Madeleine","latitude":36.1207009354469,"longitude":-115.171405076981,"full_address":"3655 Las Vegas Blvd S, The Strip, Las Vegas, NV 89109","stars":3.5},
{"business_id":"d38y2fkW1542SaoSTvE1og","name":"La Creperie","latitude":36.1125266401802,"longitude":-115.1713514328,"full_address":"3655 Las Vegas Blvd S, 3655 Las Vegas Blvd S, The Strip, Las Vegas, NV 89109","stars":3.5},
{"business_id":"ggoYlZeQhATwb_yGSntfdw","name":"RM Seafood","latitude":36.0901182339195,"longitude":-115.172017634846,"full_address":"Mandalay Bay Resort & Casino, 3930 S Las Vegas Blvd, The Strip, Las Vegas, NV 89119","stars":3.5},
{"business_id":"-5RN56jH78MV2oquLV_G8g","name":"Picasso","latitude":36.11199,"longitude":-115.177001,"full_address":"Bellagio Las Vegas, 3600 S Las Vegas Blvd, The Strip, Las Vegas, NV 89109","stars":4.5},
{"business_id":"6gJj6LSZY5HsOhaYpIvQxw","name":"Lago Buffet","latitude":36.1162194,"longitude":-115.1745719,"full_address":"Caesars Palace Hotel & Casino, 3570 Las Vegas Blvd S, The Strip, Las Vegas, NV 89109","stars":2.5},
{"business_id":"aSZzH68--YxNQYAO5nKBkA","name":"Foundation Room","latitude":36.0918639,"longitude":-115.1751614,"full_address":"Mandalay Bay Hotel & Casino, 3950 S Las Vegas Blvd, The Strip, Las Vegas, NV 89109","stars":4.0},
{"business_id":"zObyDUjiXSTCXa5t6w9ghg","name":"Red, White & Blue Restaurant","latitude":36.090754,"longitude":-115.1766701,"full_address":"Mandalay Bay Hotel & Casino, 3950 S Las Vegas Blvd, The Strip, Las Vegas, NV 89119","stars":2.5},
{"business_id":"jOuERtVf7QePnK9ZcdH5XA","name":"Grand Lux Cafe","latitude":36.1222764410517,"longitude":-115.170122460117,"full_address":"The Venetian Hotel & Casino, 3355 Las Vegas Blvd S, The Strip, Las Vegas, NV 89109","stars":4.0},
{"business_id":"M2SjLXsuAy5RNKwxaA5E1g","name":"House of Blues","latitude":36.0928664971608,"longitude":-115.175868272781,"full_address":"Mandalay Bay Hotel, 3950 Las Vegas Blvd S, The Strip, Las Vegas, NV 89119","stars":3.5},
{"business_id":"sAbRiVqmxNdjTja_vmnsnA","name":"Okada","latitude":36.1268768,"longitude":-115.1658732,"full_address":"Wynn Resort, 3131 Las Vegas Blvd S, The Strip, Las Vegas, NV 89109","stars":4.0},
{"business_id":"sH0gQB4t4kcDxY_MImHqYA","name":"Cafe Ba-Ba-Reeba","latitude":36.1272241,"longitude":-115.1715512,"full_address":"Fashion Show Mall, 3200 Las Vegas Blvd S, The Strip, Las Vegas, NV 89109","stars":3.5},
{"business_id":"Txg5Xo0njHL3-raZTqCNTw","name":"ISLA Mexican Kitchen & Tequila Bar","latitude":36.175,"longitude":-115.136389,"full_address":"3300 Las Vegas Blvd S, Las Vegas, NV 89136","stars":4.0},
{"business_id":"JcttlqJIusjo82_pxpz6oQ","name":"Sweet Tomatoes","latitude":36.1972326,"longitude":-115.2404774,"full_address":"2080 N Rainbow Blvd, Las Vegas, NV 89108","stars":3.5},
{"business_id":"J1Oi8wybu3BYYc2-I2ynPg","name":"Garduños","latitude":36.114539,"longitude":-115.195684,"full_address":"Palms Casino Resort, 4321 W Flamingo Rd, Las Vegas, NV 89103","stars":3.0},
{"business_id":"nEY3mwbpAJlQ5FOQ-F4Giw","name":"SEABLUE by Michael Mina","latitude":36.1029162,"longitude":-115.1697555,"full_address":"3799 Las Vegas Boulevard South, Eastside, Las Vegas, NV 89109","stars":4.0},
{"business_id":"ruMC34ovVAfUiULxCa3Myw","name":"Neros","latitude":36.1162194,"longitude":-115.1745719,"full_address":"Caesars Palace, 3570 Las Vegas Blvd S, The Strip, Las Vegas, NV 89109","stars":3.0},
{"business_id":"iXA8Y2bzvZo8MjALfZxrIg","name":"Margaritaville","latitude":36.1163474,"longitude":-115.1723373,"full_address":"Flamingo Las Vegas Hotel & Casino, 3555 Las Vegas Blvd S, The Strip, Las Vegas, NV 89109","stars":3.5},
{"business_id":"JS9Bao1vDxM2BGWMYjEavA","name":"Le Provencal","latitude":36.1125006379512,"longitude":-115.170578956604,"full_address":"Paris Las Vegas Hotel & Casino, 3655 Las Vegas Boulevard South, The Strip, Las Vegas, NV 89109","stars":2.5},
{"business_id":"UPgqmSaO5zOWNKczVwakLA","name":"Sushi Mon","latitude":36.1435952655398,"longitude":-115.279889904785,"full_address":"8320 W Sahara Ave, Ste 180, Westside, Las Vegas, NV 89117","stars":3.5},
{"business_id":"53i-uJ--nZ7Oz1MycKymLQ","name":"Sugar & Ice","latitude":36.126506,"longitude":-115.165731,"full_address":"Wynn Las Vegas, 3131 S Las Vegas Blvd, The Strip, Las Vegas, NV 89109","stars":3.5},
{"business_id":"5rtC3OBCIq0WKVoKH--GCg","name":"Bradley Ogden","latitude":36.1162194,"longitude":-115.1745719,"full_address":"Caesars Palace, 3570 Las Vegas Blvd, The Strip, Las Vegas, NV 89109","stars":4.0},
{"business_id":"YNQgak-ZLtYJQxlDwN-qIg","name":"The Buffet","latitude":36.1268872232164,"longitude":-115.165590047836,"full_address":"Wynn Las Vegas, 3131 Las Vegas Blvd S, The Strip, Las Vegas, NV 89109","stars":3.5},
{"business_id":"1nO6ffHEwZYFBzEsyw1w7w","name":"FIX","latitude":36.1138449002091,"longitude":-115.176319249458,"full_address":"Bellagio Las Vegas, 3600 S Las Vegas Blvd, The Strip, Las Vegas, NV 89109","stars":3.5},
{"business_id":"rGhbYmGvoqU7IVrmuNQi2g","name":"Red 8","latitude":36.1257833505363,"longitude":-115.165968372623,"full_address":"3131 Las Vegas Blvd S, The Strip, Las Vegas, NV 89109","stars":3.5},
{"business_id":"ZNdsRbGeOfrYYPRl6AziCQ","name":"Michael Mina","latitude":36.11199,"longitude":-115.177001,"full_address":"Bellagio Las Vegas, 3600 S Las Vegas Blvd, The Strip, Las Vegas, NV 89109","stars":4.0},
{"business_id":"qgfohcxx-FH549osIz5XlQ","name":"Daniel Boulud Brasserie","latitude":36.1268768,"longitude":-115.1658732,"full_address":"Wynn Las Vegas, 3131 Las Vegas Blvd S, The Strip, Las Vegas, NV 89136","stars":4.0},
{"business_id":"Xy54RutATsomOfsDVR-m_Q","name":"Country Club","latitude":36.1264229683055,"longitude":-115.163536543404,"full_address":"3131 Las Vegas Blvd. South, Las Vegas, NV 89109","stars":4.0},
{"business_id":"Lq6CDJ2yHmMs4N7jscQhHQ","name":"RA Sushi Bar Restaurant","latitude":36.127797,"longitude":-115.168692,"full_address":"3200 Las Vegas Blvd S, Ste 1132, The Strip, Las Vegas, NV 89109","stars":3.5},
{"business_id":"aGulqXnFmpOh_5Qh96uBng","name":"Alex","latitude":36.1268768,"longitude":-115.1658732,"full_address":"Wynn Las Vegas, 3131 Las Vegas Blvd S, The Strip, Las Vegas, NV 89109","stars":4.5},
{"business_id":"PdZj1gylTC5AaTO21eOYcA","name":"Ah Sin","latitude":36.1123576,"longitude":-115.1702213,"full_address":"3655 S Las Vegas Blvd, The Strip, Las Vegas, NV 89109","stars":1.5},
{"business_id":"vaq5SJubaZjIoGhgkwxxUA","name":"Terrace Pointe Cafe","latitude":36.1259639213937,"longitude":-115.167703909382,"full_address":"3131 Las Vegas Blvd. South, The Strip, Las Vegas, NV 89109","stars":3.5},
{"business_id":"Bt7lGzIlPGc13iCXoc-TIw","name":"Prime","latitude":36.112238,"longitude":-115.1790843,"full_address":"Bellagio Las Vegas, 3600 S Las Vegas Blvd, The Strip, Las Vegas, NV 89109","stars":4.0},
{"business_id":"5nCo6iU2uysEthHY5m72Jw","name":"Drugstore Cafe","latitude":36.1265953,"longitude":-115.1653652,"full_address":"3131 Las Vegas Blvd. South, The Strip, Las Vegas, NV 89109","stars":3.5},
{"business_id":"KJK7ihnpTeHXOy9rxORpGQ","name":"Pinot Brasserie","latitude":36.121792,"longitude":-115.169553,"full_address":"3355 Las Vegas Blvd, The Strip, Las Vegas, NV 89109","stars":3.5},
{"business_id":"a9fNfb-CIF4MnDnvX5tkOw","name":"The Cafe at Monte Carlo","latitude":36.1047813604414,"longitude":-115.174662672527,"full_address":"Monte Carlo Hotel and Casino, 3770 Las Vegas Blvd S, The Strip, Las Vegas, NV 89109","stars":2.5},
{"business_id":"-2n-OHbbwIv3SY8RP9bgTQ","name":"Maggiano's Little Italy","latitude":36.1276070473162,"longitude":-115.168533551375,"full_address":"3200 Las Vegas Blvd S, The Strip, Las Vegas, NV 89109","stars":4.0},
{"business_id":"ngNvH4sxnH9aMukTZ67R_Q","name":"Carnival World Buffet","latitude":36.1178899374491,"longitude":-115.189394611178,"full_address":"Rio All-Suite Hotel & Casino, 3700 W Flamingo Road, Las Vegas, NV 89103","stars":3.5},
{"business_id":"6ii5JM4zVaonwvgVcj9mfQ","name":"IHOP","latitude":36.0537026,"longitude":-115.1715307,"full_address":"7490 S Las Vegas Blvd, Southeast, Las Vegas, NV 89123","stars":3.0},
{"business_id":"2dioqPw6txEgB397frYg-A","name":"Tamba","latitude":36.106542,"longitude":-115.17204,"full_address":"3743 Las Vegas Blvd S, Ste 205, The Strip, Las Vegas, NV 89109","stars":3.5},
{"business_id":"DmePZG8oflIXPukeHNv38A","name":"Pizzeria Francesco's","latitude":36.120380555577,"longitude":-115.176508427539,"full_address":"Treasure Island, 3300 Las Vegas Blvd S, The Strip, Las Vegas, NV 89109","stars":3.0},
{"business_id":"0_LZEAYsexEZS-OFTjdjNQ","name":"Flavors The Buffet","latitude":36.1199282583936,"longitude":-115.172435045352,"full_address":"Harrah's Las Vegas Hotel & Casino, 3475 Las Vegas Boulevard South, The Strip, Las Vegas, NV 89109","stars":3.0},
{"business_id":"A71fIjJHDvnOFYeL_Jkv7A","name":"In-N-Out Burger","latitude":36.1448586,"longitude":-115.1805678,"full_address":"2900 W Sahara Ave, Westside, Las Vegas, NV 89102","stars":4.0},
{"business_id":"rBPQuQgTcMtUq5-RYhY2uQ","name":"Le Village Buffet","latitude":36.1129302793928,"longitude":-115.169968852855,"full_address":"Paris Las Vegas Hotel & Casino, 3655 Las Vegas Boulevard South, The Strip, Las Vegas, NV 89109","stars":3.5},
{"business_id":"tcphcsPONrP82kUyvcELoA","name":"Noodle Asia","latitude":36.12008,"longitude":-115.17106,"full_address":"The Venetian, 3355 Las Vegas Blvd S, The Strip, Las Vegas, NV 89109","stars":3.5},
{"business_id":"5FLRsYrT6w2VSDvQDhphXg","name":"Fiamma Trattoria & Bar","latitude":36.10156,"longitude":-115.172953,"full_address":"MGM Grand Hotel and Casino, 3799 Las Vegas Boulevard South, The Strip, Las Vegas, NV 89109","stars":4.0},
{"business_id":"vW4G1hwiW6LkuhAfbeRfqg","name":"Le Cafe Ile Saint Louis","latitude":36.112535,"longitude":-115.170958,"full_address":"Paris Las Vegas, 3655 Las Vegas Blvd S, The Strip, Las Vegas, NV 89136","stars":2.5},
{"business_id":"XZpUbduFE3HUbFkt1Zk3aA","name":"Victorian Cafe","latitude":36.115023,"longitude":-115.171781,"full_address":"Bill's Gamblin' Hall & Saloon, 3595 Las Vegas Blvd S, The Strip, Las Vegas, NV 89109","stars":3.0},
{"business_id":"E9ZsPtGovfEPHlMHkDdlQA","name":"Noodles","latitude":36.1122690547441,"longitude":-115.176300531599,"full_address":"Bellagio Las Vegas, 3600 S Las Vegas Blvd, The Strip, Las Vegas, NV 89109","stars":3.0},
{"business_id":"f6KGn2OyYk6LWEpnUEgerw","name":"Kahunaville Island Restaurant","latitude":36.1245859,"longitude":-115.1716132,"full_address":"3300 Las Vegas Blvd S, The Strip, Las Vegas, NV 89109","stars":3.0},
{"business_id":"IWA1J9m0rzU8AgXRjXJUoQ","name":"Phil's Italian Steak House","latitude":36.1245709977137,"longitude":-115.17242768262,"full_address":"3300 Las Vegas Blvd S, The Strip, Las Vegas, NV 89136","stars":3.0},
{"business_id":"KlAARyLySLdoyT8QxJFSIg","name":"The Prime Rib Loft","latitude":36.1027192,"longitude":-115.201984,"full_address":"The Orleans, 4500 W Tropicana Ave, Las Vegas, NV 89103","stars":3.5},
{"business_id":"N50HceZf1595UtU867u4uQ","name":"Fleur by Hubert Keller","latitude":36.0912534111632,"longitude":-115.176881115168,"full_address":"Mandalay Bay Resort and Casino, 3950 Las Vegas Blvd, The Strip, Las Vegas, NV 89119","stars":4.0},
{"business_id":"4uGHPY-OpJN08CabtTAvNg","name":"L'Atelier de Joël Robuchon","latitude":36.1025900700674,"longitude":-115.170541385433,"full_address":"MGM Grand Hotel and Casino, 3799 Las Vegas Boulevard South, Eastside, Las Vegas, NV 89109","stars":4.5},
{"business_id":"Me4q6iXSjJyFsfKx-l3kcw","name":"Il Mulino New York","latitude":36.128561,"longitude":-115.1711298,"full_address":"The Forum Shops at Caesars Palace, 3500 Las Vegas Blvd S, The Strip, Las Vegas, NV 89109","stars":4.0},
{"business_id":"cWFpyN49FRsFrNd3_cb50g","name":"Kimchi Korean Bbq","latitude":36.1316722,"longitude":-115.1642599,"full_address":"3049 Las Vegas Blvd, Ste 20, The Strip, Las Vegas, NV 89109","stars":3.0},
{"business_id":"6BuCNx2gO_GYiXm2KRdMXQ","name":"24 Seven Cafe","latitude":36.115317,"longitude":-115.19723,"full_address":"Palms Casino, 4321 W Flamingo Rd, Las Vegas, NV 89103","stars":3.0},
{"business_id":"TzOTe6yecv99lZuKQ6fPfA","name":"Raffles Cafe","latitude":36.090754,"longitude":-115.1766701,"full_address":"Mandalay Bay Hotel And Casino, 3950 S Las Vegas Blvd, The Strip, Las Vegas, NV 89119","stars":3.0},
{"business_id":"J4qLz0nGzCTMf6-kf_SiQg","name":"Carnegie","latitude":36.1215488943637,"longitude":-115.174516439438,"full_address":"The Mirage Hotel & Casino, 3400 Las Vegas Blvd S, The Strip, Las Vegas, NV 89109","stars":3.0},
{"business_id":"GJp4zTQPPsCEkUitopGfAQ","name":"Stack Restaurant & Bar","latitude":36.1219660468353,"longitude":-115.175025920987,"full_address":"Mirage Hotel & Casino, 3400 Las Vegas Blvd S, The Strip, Las Vegas, NV 89109","stars":4.0},
{"business_id":"23SJEjfyU5gxY2chAKhgcw","name":"Orchids Garden Chinese Restaurant","latitude":36.1435449,"longitude":-115.2163036,"full_address":"5485 W Sahara Ave, Westside, Las Vegas, NV 89146","stars":3.5},
{"business_id":"Z1KDov5DRTG-rYF_6TyO1A","name":"Veranda","latitude":36.0904354063829,"longitude":-115.174222740489,"full_address":"Four Seasons Hotel, 3950 S Las Vegas Blvd, The Strip, Las Vegas, NV 89109","stars":4.0},
{"business_id":"DW6SI2KxcfXBHeo9jEr4lQ","name":"Pyramid Cafe","latitude":36.0953641960861,"longitude":-115.175830262643,"full_address":"Luxor Las Vegas, 3900 Las Vegas Blvd S, The Strip, Las Vegas, NV 89109","stars":3.0},
{"business_id":"1yx2zLskVTe5WQdYjL2Apw","name":"Egg & I","latitude":36.1440458,"longitude":-115.2024651,"full_address":"4533 W Sahara Ave, Ste 5, Westside, Las Vegas, NV 89102","stars":4.5},
{"business_id":"qXG8IlKuvy5k9fJ3y2gLgg","name":"Nobhill Tavern by Michael Mina","latitude":36.123732800045,"longitude":-115.149078369141,"full_address":"3799 Las Vegas Blvd S, Eastside, Las Vegas, NV 89109","stars":4.0},
{"business_id":"-VnVvJzps8QkDbc1GmHnmQ","name":"Studio Café","latitude":36.1025618,"longitude":-115.169277,"full_address":"MGM Grand Hotel and Casino, 3799 Las Vegas Blvd S, Eastside, Las Vegas, NV 89109","stars":2.5},
{"business_id":"wxf6JIS3U1U7d_GMwppq8Q","name":"Augustus Cafe","latitude":36.1162194,"longitude":-115.1745719,"full_address":"Caesar's Palace, 3570 Las Vegas Blvd, The Strip, Las Vegas, NV 89136","stars":3.0},
{"business_id":"gsQ1ZB3nzUCo93kqougigA","name":"Cheeseburger","latitude":36.1105588741544,"longitude":-115.169470205257,"full_address":"Planet Hollywood, 3663 Las Vegas Blvd, The Strip, Las Vegas, NV 89109","stars":3.0},
{"business_id":"tj1QON3SD7zzp6BE5BTLLw","name":"Paradise Café","latitude":36.1362575,"longitude":-115.1512526,"full_address":"3000 Paradise Rd, Eastside, Las Vegas, NV 89109","stars":2.0},
{"business_id":"JQNOv7QlaF0giKAKCn61yw","name":"Ohana Hawaiian BBQ","latitude":36.0529956,"longitude":-115.2799348,"full_address":"7435 S Durango Dr, Ste 104, Southwest, Las Vegas, NV 89113","stars":4.0},
{"business_id":"cTz7lxA0AdWKMba6Bvsi3g","name":"Carrabba's Italian Grill","latitude":36.1584923,"longitude":-115.2864407,"full_address":"8771 W Charleston Blvd, Westside, Las Vegas, NV 89117","stars":3.5},
{"business_id":"HI7tHbCuLMV9MzXXDPamjA","name":"Fatburger","latitude":36.1569058833674,"longitude":-115.334510328396,"full_address":"11011 W Charleston Blvd, South Summerlin, Las Vegas, NV 89135","stars":3.0},
{"business_id":"lyC2KqGiFIwct39jbdIdJg","name":"The Capital Grille","latitude":36.1276483734863,"longitude":-115.168328032611,"full_address":"3200 Las Vegas Blvd South, The Strip, Las Vegas, NV 89109","stars":4.5},
{"business_id":"c12WDNrP2wyQgbnEYDdxCw","name":"MGM Grand Buffet","latitude":36.1020911812896,"longitude":-115.171778365365,"full_address":"MGM Grand, 3799 Las Vegas Blvd S, Eastside, Las Vegas, NV 89109","stars":2.5},
{"business_id":"aYEs_eXqnV8Ifj3Bp0bHwQ","name":"Sensi","latitude":36.11199,"longitude":-115.177001,"full_address":"Bellagio Las Vegas, 3600 S Las Vegas Blvd, The Strip, Las Vegas, NV 89109","stars":4.0},
{"business_id":"uqisw8IXD5ZutU4MT2MQVw","name":"Social House","latitude":36.108713,"longitude":-115.173192,"full_address":"Crystals Mall City Center, 3720 Las Vegas Blvd S, The Strip, Las Vegas, NV 89158","stars":4.0},
{"business_id":"UpMR63WZgIn8VDKnYpDwXA","name":"Cafe Bellagio","latitude":36.112379,"longitude":-115.174531,"full_address":"Bellagio Las Vegas, 3600 S Las Vegas Blvd, The Strip, Las Vegas, NV 89109","stars":3.0},
{"business_id":"tI3J5jomrBs--n7r92186g","name":"Ping Pang Pong","latitude":36.1153088291053,"longitude":-115.195201635361,"full_address":"Gold Coast Hotel & Casino, 4000 W Flamingo Rd, Las Vegas, NV 89103","stars":3.5},
{"business_id":"Shy4HqmyEewCLvq7Ub3Whg","name":"Gilley's","latitude":36.1245859,"longitude":-115.1716132,"full_address":"3300 Las Vegas Blvd S, The Strip, Las Vegas, NV 89109","stars":3.0},
{"business_id":"en2O4AiS0NDZ1AHgzYKzBA","name":"Famous Dave's","latitude":36.194458,"longitude":-115.2430691,"full_address":"1951 N Rainbow Blvd, Las Vegas, NV 89108","stars":3.0},
{"business_id":"o7wCVuIalf_WbMJ1oX6Dnw","name":"Garden Buffet","latitude":36.0114387078918,"longitude":-115.174912400544,"full_address":"South Point Hotel & Casino, 9777 S Las Vegas Blvd, Southeast, Las Vegas, NV 89183","stars":2.5},
{"business_id":"OeinO4b26UcICbrLxoj3DQ","name":"Triple George Grill","latitude":36.1718694,"longitude":-115.1421457,"full_address":"201 N 3rd St, Ste 120, Downtown, Las Vegas, NV 89101","stars":4.0},
{"business_id":"39LBSx2xXIWy1PzSmX0gVg","name":"Amigos Tacos","latitude":36.0533669,"longitude":-115.2793808,"full_address":"7425 S Durango Dr, Southwest, Las Vegas, NV 89113","stars":4.0},
{"business_id":"9sJOZf_0GS7LdVbreFlCog","name":"Vons","latitude":36.053821951425,"longitude":-115.281102755276,"full_address":"7405 S Durango Dr, Southwest, Las Vegas, NV 89113","stars":2.5},
{"business_id":"KEAcdirCmRgS7tYZrOpm7w","name":"Nathan's Famous","latitude":36.1218691,"longitude":-115.1696529,"full_address":"Venetian Hotel and Casino, 3377 Las Vegas Blvd S, The Strip, Las Vegas, NV 89109","stars":3.0},
{"business_id":"tn5SXZvWiT-uVsjXLGSrww","name":"Village Seafood Buffet","latitude":36.118117,"longitude":-115.187298,"full_address":"Rio All-Suite Hotel & Casino, 3700 W. Flamingo Road, Las Vegas, NV 89103","stars":3.5},
{"business_id":"69oTrXljeMNnA8VXd3HRVQ","name":"Roberto's Taco Shop","latitude":36.1017836,"longitude":-115.297884,"full_address":"4845 S Fort Apache, Spring Valley, Las Vegas, NV 89147","stars":3.5},
{"business_id":"OdKCcB8skRPVSk7yBGwang","name":"Market Street Cafe","latitude":36.1729495,"longitude":-115.1447421,"full_address":"California Hotel, 12 East Ogden Ave, Downtown, Las Vegas, NV 89101","stars":3.5},
{"business_id":"LTNKWxj4CzVVhhHFhGwa1Q","name":"International Marketplace","latitude":36.099554,"longitude":-115.20698,"full_address":"5000 S Decatur Blvd, Las Vegas, NV 89118","stars":4.0},
{"business_id":"uCoNIQty4nPrhn_WHo110A","name":"The Cheesecake Factory","latitude":36.1188643390147,"longitude":-115.178106512485,"full_address":"3500 South Las Vegas Blvd., The Strip, Las Vegas, NV 89109","stars":4.0},
{"business_id":"xfwRO04KbAPw_zRotCfWQQ","name":"Hash House A Go Go","latitude":36.144667,"longitude":-115.239955,"full_address":"6800 W Sahara Ave, Westside, Las Vegas, NV 89146","stars":4.0},
{"business_id":"u7-9OD_9qc6PDYlMk0-VcA","name":"Raising Cane's","latitude":36.0524764,"longitude":-115.1715066,"full_address":"7550 S Las Vegas Blvd, Southeast, Las Vegas, NV 89123","stars":4.0},
{"business_id":"lRjt0jii_pyhSH8Z3E7EmQ","name":"Hyakumi","latitude":36.1169607071423,"longitude":-115.176501274109,"full_address":"Caesars Palace, 3570 Las Vegas Blvd S, The Strip, Las Vegas, NV 89136","stars":3.0},
{"business_id":"9Bnc9YP0n5cR57xkP6fQmQ","name":"Top of the World","latitude":36.1476947,"longitude":-115.1563056,"full_address":"2000 Las Vegas Blvd S, The Strip, Las Vegas, NV 89104","stars":4.0},
{"business_id":"DTtIi7avC0Ed-tMZAAx4wA","name":"Jin Mee Korean BBQ Restaurant","latitude":36.143672,"longitude":-115.1409598,"full_address":"953 E Sahara Ave, Ste E9, Eastside, Las Vegas, NV 89136","stars":3.5},
{"business_id":"EppRsj7YUChmu9rXb38LKg","name":"TC's Rib Crib","latitude":36.1232761,"longitude":-115.2796896,"full_address":"3655 South Durango, Spring Valley, Las Vegas, NV 89147","stars":3.5},
{"business_id":"gGeVLZ9j_wAYKbaqgnKSJA","name":"TAO Asian Bistro","latitude":36.1227352673787,"longitude":-115.170028624256,"full_address":"The Venetian, 3355 S Las Vegas Blvd, The Strip, Las Vegas, NV 89109","stars":3.5},
{"business_id":"TWNjTof9SeYi3I-x53MpGg","name":"Makino","latitude":36.1636910085728,"longitude":-115.157060623169,"full_address":"775 S Grand Central Pkwy, Ste 1301, Downtown, Las Vegas, NV 89106","stars":3.5},
{"business_id":"U87W6T9vjwWnp28Zjnn4pQ","name":"Triple 7 Restaurant & Microbrewery","latitude":36.1743204,"longitude":-115.1452597,"full_address":"Main Street Station Hotel, 200 N Main St, Las Vegas, NV 89101","stars":3.5},
{"business_id":"NK-8zniVfA21IQoQCynrDg","name":"America","latitude":36.10259,"longitude":-115.174566,"full_address":"3790 Las Vegas Blvd S, The Strip, Las Vegas, NV 89109","stars":3.0},
{"business_id":"40VsC3U_JLufzJ6b5GhXTg","name":"Kobe Sushi Bistro","latitude":36.0724699,"longitude":-115.2435649,"full_address":"6375 South Rainbow Blvd, Ste 102-104, Spring Valley, Las Vegas, NV 89118","stars":3.5},
{"business_id":"kAXwEMkpcKMObw45QJGqnw","name":"Toby Keith's I Love This Bar & Grill","latitude":36.1189978366785,"longitude":-115.170383135101,"full_address":"Harrah's Las Vegas Hotel & Casino, 3475 Las Vegas Boulevard South, The Strip, Las Vegas, NV 89109","stars":3.0},
{"business_id":"jphuU3ttPugYr0lTBxtp_A","name":"La Salsa Cantina","latitude":36.1035296,"longitude":-115.1723424,"full_address":"3785 Las Vegas Blvd S, The Strip, Las Vegas, NV 89109","stars":3.5},
{"business_id":"ILoDsxtqtLU2oTMaf_laGQ","name":"Baladie Café","latitude":36.2467158,"longitude":-115.2088695,"full_address":"4872 W Lone Mountain Rd, Northwest, Las Vegas, NV 89130","stars":4.5},
{"business_id":"_LsGlbpybDbENusCXuEpyQ","name":"JJ's Boulangerie","latitude":36.111721,"longitude":-115.171207,"full_address":"Paris Las Vegas, 3655 Las Vegas Blvd S, The Strip, Las Vegas, NV 89109","stars":3.0},
{"business_id":"WP7xXx3AnBP0o-NVK5omoQ","name":"Cafe Moda","latitude":36.1273078,"longitude":-115.2243612,"full_address":"3400 S Jones Blvd, Chinatown, Las Vegas, NV 89146","stars":3.5},
{"business_id":"Sb3xeEYG-uEEWcWqsLTZUA","name":"Noodle Palace","latitude":36.125587,"longitude":-115.211199,"full_address":"5115 Spring Mountain Rd, Ste 203, Chinatown, Las Vegas, NV 89146","stars":3.5},
{"business_id":"cgFiAUsYCiw9RBX4SgkZUA","name":"Terra Rossa","latitude":36.1572810451043,"longitude":-115.333614349365,"full_address":"Red Rock Casino Resort & Spa, 11026 W Charleston Blvd, South Summerlin, Las Vegas, NV 89150","stars":3.0},
{"business_id":"HyfFenprdpIA4rmKu6DW3g","name":"Oyster Bar","latitude":36.1429035194869,"longitude":-115.174618522157,"full_address":"Palace Station Hotel & Casino, 2411 W Sahara Ave, Las Vegas, NV 89102","stars":4.5},
{"business_id":"hCxNymBRhx7eQZdxGCjvXQ","name":"Mi Casa Grill Cantina","latitude":36.0419492311505,"longitude":-115.183661817352,"full_address":"Silverton Casino, 3333 Blue Diamond Rd, Southwest, Las Vegas, NV 89139","stars":3.5},
{"business_id":"Fklm4Zi7nloG1SfLpnmEkA","name":"Nove Italiano","latitude":36.114462,"longitude":-115.194792,"full_address":"Palms Casino Resort, 4321 W Flamingo Rd, Las Vegas, NV 89103","stars":4.0},
{"business_id":"LXvueihSmsfvlCHkrz8gLw","name":"China Grill","latitude":36.0922682940059,"longitude":-115.176436901093,"full_address":"Mandalay Bay Hotel and Casino, 3950 Las Vegas Blvd S, The Strip, Las Vegas, NV 89119","stars":3.5},
{"business_id":"ZA7GsC5JNswGGXSjsGwUug","name":"La Scala","latitude":36.130315,"longitude":-115.140852,"full_address":"1020 E Desert Inn Rd, Eastside, Las Vegas, NV 89109","stars":4.0},
{"business_id":"AumuGuTg3HqvtwbLPi-ZCg","name":"Satay Thai Bistro & Bar","latitude":36.1188384,"longitude":-115.1544802,"full_address":"3900 Paradise Rd, Ste N, Eastside, Las Vegas, NV 89169","stars":4.0},
{"business_id":"rwgU2XEFJ7nyCHvUnEC5ww","name":"La Salsa Cantina","latitude":36.110441,"longitude":-115.16875,"full_address":"Planet Hollywood Resort, 3667 Las Vegas Blvd S, Eastside, Las Vegas, NV 89162","stars":3.0},
{"business_id":"8zL3V6rmFKBess3bxPLAoQ","name":"Cravings Buffet","latitude":36.121237,"longitude":-115.174105,"full_address":"The Mirage Hotel & Casino, 3400 S Las Vegas Blvd, The Strip, Las Vegas, NV 89109","stars":3.5},
{"business_id":"Gn7bMxhZgY0bivsthvJWJQ","name":"Bayside Buffet at Mandalay Bay","latitude":36.0919388468437,"longitude":-115.176587104797,"full_address":"Mandalay Bay Hotel & Casino, 3950 S Las Vegas Blvd, The Strip, Las Vegas, NV 89109","stars":3.0},
{"business_id":"_zrSQdISpB_qry9tb098rw","name":"Rao's","latitude":36.1163674508362,"longitude":-115.176439563057,"full_address":"Caesars Palace Las Vegas Hotel And Casino, 3570 Las Vegas Boulevard South, The Strip, Las Vegas, NV 89109","stars":3.5},
{"business_id":"MXqmV0513hptrtjihDdf3Q","name":"Vintner Grill","latitude":36.160122,"longitude":-115.31731,"full_address":"10100 W Charleston Blvd, Ste 150, Summerlin, Las Vegas, NV 89135","stars":4.0},
{"business_id":"4Iqcne2F4qY8lahrPA81rA","name":"Merkato Ethiopian Cafe","latitude":36.18,"longitude":-115.14,"full_address":"855 E Twain Ave, Las Vegas, NV 89162","stars":4.0},